country,latitude,longitude,bcm,mmscfd,year,field_type,field_name,field_operator,location,flare_level,flaring_vol_million_m3
Nigeria,4.316774,8.36674,0.133107777,12.87851288,2012,OIL,Adanga,Addax,Offshore,Medium,133.1077773
Nigeria,4.35386,8.245211,0.043772772,4.235125967,2012,OIL,Akam,Addax,Offshore,Small,43.77277168
Nigeria,4.271774,8.337887,0.067157917,6.497697723,2012,OIL,Ebughu,Addax,Offshore,Medium,67.15791716
Nigeria,5.619424,6.815036,0.109629477,10.60692815,2012,OIL,Izombe,Addax,Onshore,Medium,109.6294768
Nigeria,4.221047,8.333957,0.028064393,2.715300702,2012,OIL,Mimbo,Addax,Offshore,Small,28.06439255
Nigeria,4.243009,8.322505,0.025401314,2.457641173,2012,OIL,Mimbo,Addax,Offshore,Small,25.40131433
Nigeria,3.854964,6.980177,0.1039003,10.05261581,2012,OIL,Okwori,Addax,Offshore,Medium,103.9002996
Nigeria,4.453513,6.325799,0.013153893,1.272672292,2012,OIL,"Nembe Creek","Aiteo Eastern E&P Company",Onshore,Small,13.15389296
Nigeria,4.433297,6.324913,0.012164262,1.176923011,2012,OIL,"Nembe Creek","Aiteo Eastern E&P Company",Offshore,Small,12.16426209
Nigeria,4.441572,6.361473,0.013598996,1.31573715,2012,OIL,"Nembe Creek","Aiteo Eastern E&P Company",Onshore,Small,13.59899619
Nigeria,4.451806,6.283618,0.005353009,0.517917084,2012,OIL,"Nembe Creek","Aiteo Eastern E&P Company",Onshore,Small,5.35300873
Nigeria,4.420146,6.517679,0,0,2012,OIL,"Odeama Creek","Aiteo Eastern E&P Company",Onshore,Small,0
Nigeria,4.540289,6.503308,0.016810328,1.626441621,2012,OIL,"Santa Barbara","Aiteo Eastern E&P Company",Onshore,Small,16.81032826
Nigeria,4.349905,7.312247,0.06556689,6.343761813,2012,GAS,"Ima Gas","Amni International",Offshore,Medium,65.56688976
Nigeria,4.403847,7.828388,0.05503624,5.32489493,2012,OIL,Okoro,"Amni International",Offshore,Medium,55.03624019
Nigeria,5.597813,4.989237,0.049049482,4.745660995,2012,OIL,"Ejulebe (OML 109)","Atlas Petroleum International",Offshore,Small,49.04948207
Nigeria,5.331271,5.208995,0.017981449,1.739750468,2012,OIL,Ajapa,"Brittania-U Nigeria",Offshore,Small,17.98144863
Nigeria,5.673479,5.274604,0.059016766,5.710020832,2012,OIL,Abiteye,Chevron,Onshore,Medium,59.01676599
Nigeria,3.465856,5.561246,0.100528386,9.726374686,2012,OIL,"Agbami-Ekoli (OML 127)",Chevron,Offshore,Medium,100.5283861
Nigeria,5.860803,5.133084,0.111757254,10.81279597,2012,OIL,"Benin River",Chevron,Onshore,Medium,111.7572542
Nigeria,5.686002,5.053255,0.133088555,12.87665306,2012,OIL,Delta,Chevron,Offshore,Medium,133.0885548
Nigeria,5.600608,5.109032,0.059323734,5.739720734,2012,OIL,"Delta South",Chevron,Offshore,Medium,59.32373373
Nigeria,5.817179,5.200836,0.126998587,12.28743332,2012,OIL,Dibi,Chevron,Onshore,Medium,126.9985869
Nigeria,5.870053,4.939616,0.082073651,7.940832576,2012,OIL,Ewan,Chevron,Offshore,Medium,82.07365117
Nigeria,4.326663,5.821515,0.086432711,8.362582635,2012,OIL,Funiwa,Chevron,Offshore,Medium,86.43271137
Nigeria,5.783992,5.428424,0.064862461,6.275606545,2012,OIL,Makaraba,Chevron,Onshore,Medium,64.8624609
Nigeria,5.828326,4.797094,0.030495086,2.950476432,2012,OIL,Malu,Chevron,Offshore,Small,30.49508614
Nigeria,5.436448,5.140352,0.069262036,6.701276534,2012,OIL,Meji,Chevron,Offshore,Medium,69.26203611
Nigeria,5.777357,4.889021,0.0347258,3.359808613,2012,OIL,Meren,Chevron,Offshore,Small,34.72579952
Nigeria,5.758847,4.923832,0.037817361,3.658924971,2012,OIL,Meren,Chevron,Offshore,Small,37.81736094
Nigeria,4.36727,5.791606,0.008515871,0.823931946,2012,OIL,"North Apoi",Chevron,Offshore,Small,8.515870653
Nigeria,5.55965,5.072566,0.133777014,12.94326325,2012,OIL,Okan,Chevron,Offshore,Medium,133.7770143
Nigeria,5.574158,5.058795,0.033137729,3.206158828,2012,OIL,Okan,Chevron,Offshore,Small,33.13772942
Nigeria,5.537961,5.091546,0.024664385,2.386341378,2012,OIL,Okan,Chevron,Offshore,Small,24.66438474
Nigeria,5.738643,4.725901,0.058940172,5.702610162,2012,OIL,Opolo,Chevron,Offshore,Medium,58.94017192
Nigeria,5.916131,5.01622,0.075311785,7.286604957,2012,OIL,Opuekeba,Chevron,Onshore,Medium,75.31178472
Nigeria,5.88147,4.834434,0.148886156,14.40511076,2012,OIL,Parabe,Chevron,Offshore,Medium,148.8861557
Nigeria,5.717819,5.004647,0.047907964,4.635216271,2012,OIL,Tapa,Chevron,Offshore,Small,47.90796427
Nigeria,4.337989,5.925766,0.069695281,6.743194026,2012,OIL,Otuo,ConOil,Offshore,Medium,69.69528056
Nigeria,6.153596,5.342703,0.04464902,4.319905169,2012,OIL,"Gilli Gilli","Dubri Oil",Onshore,Small,44.64901967
Nigeria,5.684999,6.359476,0.029809288,2.88412376,2012,OIL,Ebendo,Energia,Onshore,Small,29.80928827
Nigeria,5.708656,4.480765,0.094223718,9.116382182,2012,OIL,Abo,Eni,Offshore,Medium,94.22371822
Nigeria,3.940647,6.397746,0.105501973,10.20758177,2012,OIL,Agbara,Eni,Offshore,Medium,105.5019732
Nigeria,5.634528,6.669413,0.251017398,24.28656586,2012,OIL,Akri,Eni,Onshore,Medium,251.0173984
Nigeria,5.686671,6.591909,0,0,2012,OIL,Beniku,Eni,Onshore,Small,0
Nigeria,4.851438,5.69192,0.045676386,4.41930542,2012,OIL,"Clough Creek",Eni,Onshore,Small,45.67638569
Nigeria,5.488513,6.243742,0.048384385,4.681311206,2012,GAS,Irri,Eni,Onshore,Small,48.3843853
Nigeria,5.659787,6.516926,0.117756729,11.39326025,2012,OIL,Kwale,Eni,Onshore,Medium,117.7567287
Nigeria,5.459827,6.694868,0.121910257,11.79512454,2012,OIL,M'Bede,Eni,Onshore,Medium,121.9102566
Nigeria,4.628705,6.263604,0.132764435,12.84529363,2012,OIL,Obama,Eni,Onshore,Medium,132.7644347
Nigeria,5.386461,6.657315,0.140883998,13.6308818,2012,OIL,Obiafu-Obrikom,Eni,Onshore,Medium,140.8839976
Nigeria,4.813912,5.961619,0.071888119,6.955356624,2012,OIL,Ogbainbiri,Eni,Onshore,Medium,71.88811851
Nigeria,5.099876,6.506743,0.10219305,9.887435139,2012,OIL,Oshi,Eni,Onshore,Medium,102.1930503
Nigeria,4.753029,6.02998,0.008191159,0.792515286,2012,OIL,"Osiama Creek South",Eni,Onshore,Small,8.191159113
Nigeria,4.556357,5.921292,0.067629607,6.543334856,2012,OIL,Tebidaba,Eni,Onshore,Medium,67.62960651
Nigeria,5.386699,4.589897,0.153318557,14.83395675,2012,OIL,"Oyo NW","Erin Energy",Offshore,Medium,153.3185569
Nigeria,4.653398,7.059697,0.008014106,0.775384909,2012,OIL,Alakiri,"Eroton E&P Company",Onshore,Small,8.014105562
Nigeria,4.556519,7.004341,0.0624496,6.042156157,2012,OIL,"Cawthorne Channel","Eroton E&P Company",Offshore,Medium,62.44959983
Nigeria,4.552878,7.045199,0.038698932,3.744219199,2012,OIL,"Cawthorne Channel","Eroton E&P Company",Onshore,Small,38.69893207
Nigeria,4.559199,6.97518,0.059353011,5.742553384,2012,OIL,"Cawthorne Channel","Eroton E&P Company",Onshore,Medium,59.353011
Nigeria,4.106297,7.799394,0.079436922,7.685722432,2012,OIL,Asabo,ExxonMobil,Offshore,Medium,79.43692249
Nigeria,4.146036,7.972153,0.254338446,24.60788561,2012,OIL,Edop,ExxonMobil,Offshore,Medium,254.3384463
Nigeria,4.106596,7.624868,0.045066295,4.360277579,2012,OIL,Ekpe,ExxonMobil,Offshore,Small,45.0662947
Nigeria,5.359096,4.342111,0.164998709,15.96404089,2012,OIL,Erha,ExxonMobil,Offshore,Medium,164.998709
Nigeria,4.156112,8.044772,0.008364634,0.80929945,2012,OIL,Etim,ExxonMobil,Offshore,Small,8.364634331
Nigeria,4.142027,8.041971,0.002052934,0.198626538,2012,OIL,Etim,ExxonMobil,Offshore,Small,2.052934002
Nigeria,4.365161,7.998207,0.034024032,3.291910859,2012,OIL,Idoho,ExxonMobil,Offshore,Small,34.02403223
Nigeria,4.304382,7.660039,0.240958438,23.31333611,2012,GAS,Oso,ExxonMobil,Offshore,Medium,240.9584382
Nigeria,4.288639,8.167033,0.09840534,9.520964667,2012,OIL,Unam,ExxonMobil,Offshore,Medium,98.40534042
Nigeria,3.575497,7.393831,0.369978931,35.79639393,2012,OIL,Usan,ExxonMobil,Offshore,Medium,369.9789311
Nigeria,3.53426,7.423296,0.002501545,0.242030742,2012,OIL,Usan,ExxonMobil,Offshore,Small,2.501544582
Nigeria,3.532265,7.432432,0.003929956,0.380233144,2012,OIL,Usan,ExxonMobil,Offshore,Small,3.92995597
Nigeria,4.242915,7.794583,0.034837881,3.370652797,2012,OIL,Usari,ExxonMobil,Offshore,Small,34.83788119
Nigeria,4.187277,8.234907,0.006596553,0.638233163,2012,OIL,Utue,ExxonMobil,Offshore,Small,6.59655338
Nigeria,4.017335,7.49207,0.052288908,5.059083664,2012,OIL,Yoho,ExxonMobil,Offshore,Medium,52.28890849
Nigeria,4.606262,8.014962,0.001744041,0.168740367,2012,GAS,Uquo,"Frontier Oil Ltd",Onshore,Small,1.744041059
Nigeria,5.715059,6.421528,0.01533644,1.48383917,2012,OIL,Umusadege,"Midwestern O&G",Onshore,Small,15.33643951
Nigeria,5.70242,6.440111,0,0,2012,OIL,Umusadege,"Midwestern O&G",Onshore,Small,0
Nigeria,4.576829,8.422644,0.005356794,0.518283326,2012,OIL,"Abana East","Moni Pulo",Offshore,Small,5.356794074
Nigeria,4.784876,5.650581,0,0,2012,OIL,Atala,NA,Onshore,Small,0
Nigeria,4.729251,7.118721,0.014956574,1.447086256,2012,OIL,"Dawes Island",NA,Onshore,Small,14.95657432
Nigeria,6.689055,6.927888,0.007406676,0.716614582,2012,NA,NA,NA,Onshore,Small,7.406676142
Nigeria,6.417933,2.989245,0.00590836,0.571648728,2012,NA,NA,NA,Onshore,Small,5.908360097
Nigeria,4.415452,7.139957,0.040676774,3.93558042,2012,LNG,NLNG,NA,Offshore,Small,40.67677431
Nigeria,4.423445,7.155116,0.093362848,9.033090837,2012,OIL,NLNG,NA,Onshore,Medium,93.36284819
Nigeria,5.535151,5.537301,0.016588531,1.604982154,2012,OIL,Batan,"Neconde Energy",Onshore,Small,16.58853076
Nigeria,5.688247,5.378401,0,0,2012,OIL,"Jones Creek","Neconde Energy",Onshore,Small,0
Nigeria,5.524229,5.468029,0,0,2012,OIL,Odidi,"Neconde Energy",Onshore,Small,0
Nigeria,4.552183,8.011026,0.132561268,12.82563676,2012,OIL,"Qua Iboe","Network E&P",Onshore,Medium,132.5612682
Nigeria,4.529659,6.818466,0.090669635,8.772515681,2012,OIL,"Awoba (OML 24)","Newcross EP",Offshore,Medium,90.66963508
Nigeria,4.560722,6.710042,0.041780734,4.042391341,2012,OIL,Ekulama,"Newcross EP",Offshore,Small,41.7807344
Nigeria,4.549869,6.665711,0.023738543,2.29676384,2012,OIL,Ekulama,"Newcross EP",Onshore,Small,23.73854283
Nigeria,4.929133,6.653601,0.02145944,2.07625494,2012,OIL,Ogbele,"Niger Delta E & P",Onshore,Small,21.45944044
Nigeria,5.545515,6.764307,0.009528243,0.921881537,2012,OIL,Egbema,NPDC,Onshore,Small,9.528243162
Nigeria,5.544172,6.683921,0.030476159,2.948645224,2012,OIL,"Egbema West",NPDC,Onshore,Small,30.47615942
Nigeria,6.038037,5.717799,0.017423229,1.685741281,2012,OIL,Ogharefe,NPDC,Onshore,Small,17.42322868
Nigeria,5.568594,6.305043,0.033330545,3.224814258,2012,OIL,Ogini,NPDC,Onshore,Small,33.33054538
Nigeria,3.989576,7.289804,0.290304242,28.08766695,2012,OIL,Okono,NPDC,Offshore,Medium,290.3042417
Nigeria,5.950847,5.051043,0,0,2012,OIL,Opuama,NPDC,Onshore,Small,0
Nigeria,6.063026,5.586879,0.199381462,19.29065886,2012,OIL,Oredo,NPDC,Onshore,Medium,199.3814617
Nigeria,5.51603,5.937895,0.036402589,3.522042184,2012,OIL,"Ughelli East",NPDC,Onshore,Small,36.40258862
Nigeria,5.53871,5.894477,0.009141133,0.884427614,2012,OIL,"Ughelli West",NPDC,Onshore,Small,9.141132592
Nigeria,5.434143,5.884579,0.076368724,7.388866471,2012,OIL,Utorogu,NPDC,Onshore,Medium,76.36872374
Nigeria,5.44816,5.87926,0.063741053,6.16710748,2012,OIL,Utorogu,NPDC,Onshore,Medium,63.74105274
Nigeria,4.102109,8.171163,0.066799492,6.463019224,2012,OIL,Ebok,"Oriental Energy",Offshore,Medium,66.7994924
Nigeria,5.666113,6.394499,0.01027854,0.994474622,2012,OIL,Umuseti,"Pillar Oil",Onshore,Small,10.27853975
Nigeria,5.881206,6.217936,0.099001236,9.578619102,2012,OIL,Egbaoma,"Platform Petroleum",Onshore,Medium,99.00123637
Nigeria,4.493538,7.270521,0,0,2012,OIL,Asaramatoru,"Prime Energy",Offshore,Small,0
Nigeria,6.065285,5.437123,0.036119279,3.494631291,2012,OIL,Oki,"Sahara Energy",Onshore,Small,36.11927928
Nigeria,4.581788,8.191209,0.00081143,0.078507887,2012,GAS,"Stubb Creek","Savannah Energy",Onshore,Small,0.811429889
Nigeria,5.864093,5.692111,0.029051894,2.810843971,2012,OIL,Amukpe,"SEPLAT Petroleum Development",Onshore,Small,29.05189417
Nigeria,4.626234,6.814585,0.052154351,5.046064921,2012,OIL,Idama,"SEPLAT Petroleum Development",Offshore,Medium,52.15435134
Nigeria,4.3483,7.111652,0.012002527,1.161274768,2012,OIL,Inda,"SEPLAT Petroleum Development",Offshore,Small,12.00252735
Nigeria,6.013348,5.865418,0.096791246,9.364796972,2012,OIL,Oben,"SEPLAT Petroleum Development",Onshore,Medium,96.79124608
Nigeria,4.526689,6.632389,0.100804598,9.753098875,2012,OIL,Robertkiri,"SEPLAT Petroleum Development",Onshore,Medium,100.8045979
Nigeria,5.900414,5.582542,0.133922809,12.95736927,2012,OIL,Sapele,"SEPLAT Petroleum Development",Onshore,Medium,133.9228092
Nigeria,5.727132,4.831465,0.014345448,1.387958271,2012,OIL,"Ukpokiti (OML 108)","Shebah E&P Company",Offshore,Small,14.34544828
Nigeria,5.197658,6.491347,0,0,2012,OIL,Adibawa,Shell,Onshore,Small,0
Nigeria,4.841387,7.25394,0.017293522,1.673191785,2012,OIL,"Afam Umuosi",Shell,Onshore,Small,17.2935215
Nigeria,4.933476,6.976427,0.021945118,2.123245451,2012,OIL,Agbada,Shell,Onshore,Small,21.94511782
Nigeria,4.930375,7.016196,0.009234199,0.893432006,2012,OIL,Agbada,Shell,Onshore,Small,9.234198823
Nigeria,5.192844,6.761927,0.034771638,3.364243569,2012,OIL,Ahia,Shell,Onshore,Small,34.77163767
Nigeria,4.401454,6.646596,0.075088804,7.26503104,2012,OIL,Belema,Shell,Onshore,Medium,75.0888043
Nigeria,5.006007,5.686542,0.054541188,5.276997399,2012,OIL,Benisede,Shell,Onshore,Medium,54.54118817
Nigeria,4.998086,5.687363,0.041992773,4.062906591,2012,OIL,Benisede,Shell,Onshore,Small,41.99277281
Nigeria,4.554694,4.615805,0.065146657,6.303103276,2012,OIL,Bonga,Shell,Offshore,Medium,65.14665743
Nigeria,4.468792,7.196087,0.030396904,2.940977041,2012,OIL,Bonny,Shell,Onshore,Small,30.39690378
Nigeria,4.66178,6.076893,0.089265213,8.636634336,2012,OIL,"Diebu Creek",Shell,Onshore,Medium,89.26521331
Nigeria,4.802516,5.311433,0.012895691,1.247690611,2012,OIL,EA,Shell,Offshore,Small,12.8956911
Nigeria,4.82957,7.108037,0.019577237,1.894147042,2012,OIL,Elelenwa,Shell,Onshore,Small,19.57723728
Nigeria,5.536295,5.194801,0.081071718,7.84389301,2012,OIL,"Escravos Beach",Shell,Onshore,Medium,81.07171793
Nigeria,5.025551,6.358518,0.019974698,1.932602407,2012,OIL,Etelebou,Shell,Onshore,Small,19.9746984
Nigeria,5.376627,5.307871,0.030545065,2.955311965,2012,OIL,"Forcados Yokri",Shell,Offshore,Small,30.54506451
Nigeria,5.360204,5.324809,0.008387258,0.811488316,2012,OIL,"Forcados Yokri",Shell,Offshore,Small,8.387257676
Nigeria,5.410016,5.318099,0.012237071,1.183967439,2012,OIL,"Forcados Yokri",Shell,Offshore,Small,12.23707082
Nigeria,5.431443,5.26774,0.009378397,0.907383521,2012,OIL,"Forcados Yokri",Shell,Offshore,Small,9.378396771
Nigeria,5.345315,5.367339,0.014637452,1.416210375,2012,OIL,"Forcados Yokri",Shell,Onshore,Small,14.63745208
Nigeria,5.336556,5.352246,0.000741664,0.071757883,2012,OIL,"Forcados Yokri",Shell,Onshore,Small,0.741664224
Nigeria,5.018598,6.300172,0.056981256,5.513080149,2012,GAS,Gbaran,Shell,Onshore,Medium,56.9812564
Nigeria,4.980622,7.183092,0.037738105,3.651256788,2012,OIL,"Imo River",Shell,Onshore,Small,37.7381053
Nigeria,4.987072,7.168567,0.012017757,1.162748318,2012,OIL,"Imo River",Shell,Onshore,Small,12.01775745
Nigeria,4.864771,7.246198,0.00936917,0.906490807,2012,OIL,Isimiri,Shell,Onshore,Small,9.369169995
Nigeria,4.88602,6.372504,0.011344262,1.097585931,2012,OIL,"Kolo Creek",Shell,Onshore,Small,11.34426195
Nigeria,4.9825,7.117503,0.015139217,1.464757412,2012,OIL,Nkali,Shell,Onshore,Small,15.13921717
Nigeria,4.800744,6.089971,0.056921223,5.507271787,2012,OIL,"Nun River",Shell,Onshore,Medium,56.92122321
Nigeria,5.007743,6.811342,0.007389435,0.714946466,2012,OIL,Obele,Shell,Onshore,Small,7.389435083
Nigeria,4.893178,7.119541,0.008045364,0.778409263,2012,OIL,"Obigbo North (OML 11)",Shell,Onshore,Small,8.045364223
Nigeria,5.661119,6.705848,0.022245757,2.152333043,2012,OIL,Oguta,Shell,Onshore,Small,22.24575694
Nigeria,4.913094,5.773726,0.036994936,3.579353267,2012,OIL,Opukushi,Shell,Onshore,Small,36.99493581
Nigeria,5.654645,5.14771,0.047999936,4.644114797,2012,OIL,Otumara,Shell,Onshore,Small,47.9999363
Nigeria,4.981302,6.684008,0.032583236,3.152510161,2012,OIL,Rumuekpe,Shell,Onshore,Small,32.58323567
Nigeria,5.624213,5.172899,0.063533746,6.147050032,2012,OIL,Saghara,Shell,Onshore,Medium,63.53374601
Nigeria,5.615888,5.20193,0.054425262,5.265781251,2012,OIL,Saghara,Shell,Onshore,Medium,54.42526201
Nigeria,4.65579,6.614816,0.035431116,3.428049718,2012,OIL,Soku,Shell,Onshore,Small,35.43111557
Nigeria,4.648893,6.63303,0,0,2012,OIL,Soku,Shell,Onshore,Small,0
Nigeria,4.880939,5.615126,0.124786822,12.07343952,2012,GAS,Tunu,Shell,Onshore,Medium,124.7868223
Nigeria,5.112547,6.55665,0.009679006,0.936468252,2012,OIL,Ubie,Shell,Onshore,Small,9.679006316
Nigeria,5.008144,7.018997,0.019086237,1.846641504,2012,OIL,Umuechem,Shell,Onshore,Small,19.08623676
Nigeria,5.548873,6.012966,0.003683495,0.356387384,2012,OIL,Afiesere,"Shoreline Natural Resources",Onshore,Small,3.683494588
Nigeria,5.651901,6.069358,0.029379415,2.842532451,2012,OIL,Kokori,"Shoreline Natural Resources",Onshore,Small,29.37941514
Nigeria,5.459583,6.179629,0.038352337,3.710685205,2012,OIL,Olomoro-Oleh,"Shoreline Natural Resources",Onshore,Small,38.35233651
Nigeria,5.356241,6.144253,0.012791032,1.237564604,2012,OIL,Oroni,"Shoreline Natural Resources",Onshore,Small,12.79103225
Nigeria,5.489939,6.13561,0.015996657,1.54771685,2012,OIL,Oweh,"Shoreline Natural Resources",Onshore,Small,15.99665673
Nigeria,5.327181,6.241895,0,0,2012,OIL,"Uzere West","Shoreline Natural Resources",Onshore,Small,0
Nigeria,5.716869,6.48592,0.028588544,2.766013714,2012,OIL,Okwuibome,"Sterling Global",Onshore,Small,28.5885444
Nigeria,5.823731,6.4422,0.000142059,0.01374456,2012,GAS,Matsogo,"Swift Oil",Onshore,Small,0.142058933
Nigeria,3.955456,7.758371,0.0210626,2.037859662,2012,OIL,Afia,TotalEnergies,Offshore,Small,21.06260035
Nigeria,3.142144,6.823137,0.108384158,10.4864404,2012,GAS,Akpo,TotalEnergies,Offshore,Medium,108.3841578
Nigeria,4.13571,7.515565,0.044123212,4.269031925,2012,OIL,Amenam-Kpono,TotalEnergies,Offshore,Small,44.12321173
Nigeria,4.035214,7.686007,0.029762859,2.879631578,2012,OIL,Edikan,TotalEnergies,Offshore,Small,29.76285866
Nigeria,5.245901,6.659867,0.005260948,0.509009975,2012,GAS,Ibewa,TotalEnergies,Onshore,Small,5.260947981
Nigeria,3.95392,7.774897,0.02609486,2.524743495,2012,OIL,Ime,TotalEnergies,Offshore,Small,26.09486032
Nigeria,5.238211,6.626947,0.078082479,7.55467662,2012,OIL,Obagi,TotalEnergies,Onshore,Medium,78.08247909
Nigeria,5.249955,6.599884,0.273374882,26.44970875,2012,OIL,"Obagi SW",TotalEnergies,Onshore,Medium,273.3748821
Nigeria,3.978451,7.757837,0.009515201,0.92061972,2012,OIL,Odudu,TotalEnergies,Offshore,Small,9.515201469
Nigeria,4.12824,8.096095,0.19815714,19.17220261,2012,OIL,Ofon,TotalEnergies,Offshore,Medium,198.1571395
Nigeria,4.316774,8.36674,0.137223747,13.27674337,2013,OIL,Adanga,Addax,Offshore,Medium,137.2237474
Nigeria,4.35386,8.245211,0.046625088,4.511094714,2013,OIL,Akam,Addax,Offshore,Small,46.62508753
Nigeria,4.271774,8.337887,0.065864098,6.372517499,2013,OIL,Ebughu,Addax,Offshore,Medium,65.86409841
Nigeria,5.619424,6.815036,0.086256752,8.345558125,2013,OIL,Izombe,Addax,Onshore,Medium,86.25675202
Nigeria,4.221047,8.333957,0.03038123,2.939460572,2013,OIL,Mimbo,Addax,Offshore,Small,30.38123009
Nigeria,4.243009,8.322505,0,0,2013,OIL,Mimbo,Addax,Offshore,Small,0
Nigeria,3.854964,6.980177,0.10866037,10.51316459,2013,OIL,Okwori,Addax,Offshore,Medium,108.6603696
Nigeria,4.453513,6.325799,0.014769673,1.429003079,2013,OIL,"Nembe Creek","Aiteo Eastern E&P Company",Onshore,Small,14.76967296
Nigeria,4.433297,6.324913,0.008058879,0.77971686,2013,OIL,"Nembe Creek","Aiteo Eastern E&P Company",Offshore,Small,8.058879084
Nigeria,4.441572,6.361473,0.006876196,0.665289259,2013,OIL,"Nembe Creek","Aiteo Eastern E&P Company",Onshore,Small,6.876195668
Nigeria,4.451806,6.283618,0.001600822,0.15488356,2013,OIL,"Nembe Creek","Aiteo Eastern E&P Company",Onshore,Small,1.600821978
Nigeria,4.420146,6.517679,0,0,2013,OIL,"Odeama Creek","Aiteo Eastern E&P Company",Onshore,Small,0
Nigeria,4.540289,6.503308,0.016290435,1.57614063,2013,OIL,"Santa Barbara","Aiteo Eastern E&P Company",Onshore,Small,16.29043492
Nigeria,4.349905,7.312247,0.05406595,5.231016914,2013,GAS,"Ima Gas","Amni International",Offshore,Medium,54.06595006
Nigeria,4.403847,7.828388,0.07425662,7.184515119,2013,OIL,Okoro,"Amni International",Offshore,Medium,74.25662008
Nigeria,5.597813,4.989237,0.056226553,5.440060736,2013,OIL,"Ejulebe (OML 109)","Atlas Petroleum International",Offshore,Medium,56.22655344
Nigeria,5.331271,5.208995,0.015144422,1.465260994,2013,OIL,Ajapa,"Brittania-U Nigeria",Offshore,Small,15.14442202
Nigeria,5.673479,5.274604,0.033528389,3.243956103,2013,OIL,Abiteye,Chevron,Onshore,Small,33.52838875
Nigeria,3.465856,5.561246,0.080239829,7.763405703,2013,OIL,"Agbami-Ekoli (OML 127)",Chevron,Offshore,Medium,80.23982944
Nigeria,5.860803,5.133084,0.057748971,5.587358518,2013,OIL,"Benin River",Chevron,Onshore,Medium,57.74897148
Nigeria,5.686002,5.053255,0.123138719,11.91398137,2013,OIL,Delta,Chevron,Offshore,Medium,123.138719
Nigeria,5.600608,5.109032,0.058934849,5.702095135,2013,OIL,"Delta South",Chevron,Offshore,Medium,58.93484878
Nigeria,5.817179,5.200836,0.078196631,7.565721092,2013,OIL,Dibi,Chevron,Onshore,Medium,78.19663087
Nigeria,5.870053,4.939616,0.049163042,4.756648242,2013,OIL,Ewan,Chevron,Offshore,Small,49.16304239
Nigeria,4.326663,5.821515,0.071584108,6.925942848,2013,OIL,Funiwa,Chevron,Offshore,Medium,71.58410807
Nigeria,5.783992,5.428424,0.058644146,5.673968927,2013,OIL,Makaraba,Chevron,Onshore,Medium,58.64414619
Nigeria,5.828326,4.797094,0.02031949,1.965961863,2013,OIL,Malu,Chevron,Offshore,Small,20.31949001
Nigeria,5.436448,5.140352,0.079484239,7.690300452,2013,OIL,Meji,Chevron,Offshore,Medium,79.48423929
Nigeria,5.777357,4.889021,0.05258109,5.087352936,2013,OIL,Meren,Chevron,Offshore,Medium,52.58108973
Nigeria,5.758847,4.923832,0.027594478,2.669835244,2013,OIL,Meren,Chevron,Offshore,Small,27.59447758
Nigeria,4.36727,5.791606,0.001171798,0.11337437,2013,OIL,"North Apoi",Chevron,Offshore,Small,1.171797595
Nigeria,5.55965,5.072566,0.06154437,5.954572918,2013,OIL,Okan,Chevron,Offshore,Medium,61.5443703
Nigeria,5.574158,5.058795,0.028380765,2.745910485,2013,OIL,Okan,Chevron,Offshore,Small,28.38076451
Nigeria,5.537961,5.091546,0.017868805,1.72885192,2013,OIL,Okan,Chevron,Offshore,Small,17.86880507
Nigeria,5.738643,4.725901,0.045910604,4.441966617,2013,OIL,Opolo,Chevron,Offshore,Small,45.91060385
Nigeria,5.916131,5.01622,0.065686365,6.355321312,2013,OIL,Opuekeba,Chevron,Onshore,Medium,65.68636468
Nigeria,5.88147,4.834434,0.157750071,15.2627169,2013,OIL,Parabe,Chevron,Offshore,Medium,157.750071
Nigeria,5.717819,5.004647,0.041117412,3.978213228,2013,OIL,Tapa,Chevron,Offshore,Small,41.11741201
Nigeria,4.337989,5.925766,0.061190086,5.920294996,2013,OIL,Otuo,ConOil,Offshore,Medium,61.19008576
Nigeria,6.153596,5.342703,0.042729732,4.134209247,2013,OIL,"Gilli Gilli","Dubri Oil",Onshore,Small,42.72973197
Nigeria,5.684999,6.359476,0.047956464,4.639908741,2013,OIL,Ebendo,Energia,Onshore,Small,47.95646399
Nigeria,5.708656,4.480765,0.168414982,16.29457391,2013,OIL,Abo,Eni,Offshore,Medium,168.414982
Nigeria,3.940647,6.397746,0.109841515,10.6274434,2013,OIL,Agbara,Eni,Offshore,Medium,109.8415153
Nigeria,5.634528,6.669413,0.183006596,17.70634933,2013,OIL,Akri,Eni,Onshore,Medium,183.0065959
Nigeria,5.686671,6.591909,0.000442028,0.042767287,2013,OIL,Beniku,Eni,Onshore,Small,0.442027631
Nigeria,4.851438,5.69192,0.060400487,5.843899294,2013,OIL,"Clough Creek",Eni,Onshore,Medium,60.40048666
Nigeria,5.488513,6.243742,0.107630638,10.41353543,2013,GAS,Irri,Eni,Onshore,Medium,107.6306378
Nigeria,5.659787,6.516926,0.171160244,16.56018489,2013,OIL,Kwale,Eni,Onshore,Medium,171.1602436
Nigeria,5.459827,6.694868,0.133908614,12.95599586,2013,OIL,M'Bede,Eni,Onshore,Medium,133.9086141
Nigeria,4.628705,6.263604,0.112795266,10.91322628,2013,OIL,Obama,Eni,Onshore,Medium,112.7952665
Nigeria,5.386461,6.657315,0.144218649,13.95351773,2013,OIL,Obiafu-Obrikom,Eni,Onshore,Medium,144.2186491
Nigeria,4.813912,5.961619,0.072606151,7.024828072,2013,OIL,Ogbainbiri,Eni,Onshore,Medium,72.60615095
Nigeria,5.099876,6.506743,0.123883663,11.98605657,2013,OIL,Oshi,Eni,Onshore,Medium,123.8836628
Nigeria,4.753029,6.02998,0.002209502,0.213774919,2013,OIL,"Osiama Creek South",Eni,Onshore,Small,2.209502336
Nigeria,4.556357,5.921292,0.041002077,3.967054305,2013,OIL,Tebidaba,Eni,Onshore,Small,41.00207731
Nigeria,5.386699,4.589897,0.163143595,15.78455391,2013,OIL,"Oyo NW","Erin Energy",Offshore,Medium,163.1435947
Nigeria,4.653398,7.059697,0.002293623,0.221913779,2013,OIL,Alakiri,"Eroton E&P Company",Onshore,Small,2.293622734
Nigeria,4.556519,7.004341,0.051978688,5.029069023,2013,OIL,"Cawthorne Channel","Eroton E&P Company",Offshore,Medium,51.97868772
Nigeria,4.552878,7.045199,0.028740372,2.780703435,2013,OIL,"Cawthorne Channel","Eroton E&P Company",Onshore,Small,28.74037219
Nigeria,4.559199,6.97518,0.043643538,4.222622251,2013,OIL,"Cawthorne Channel","Eroton E&P Company",Onshore,Small,43.64353767
Nigeria,4.106297,7.799394,0.000146112,0.014136724,2013,OIL,Asabo,ExxonMobil,Offshore,Small,0.146112208
Nigeria,4.146036,7.972153,0.288778275,27.94002582,2013,OIL,Edop,ExxonMobil,Offshore,Medium,288.7782749
Nigeria,4.106596,7.624868,0.044858397,4.340162906,2013,OIL,Ekpe,ExxonMobil,Offshore,Small,44.85839651
Nigeria,5.359096,4.342111,0.198012528,19.15821103,2013,OIL,Erha,ExxonMobil,Offshore,Medium,198.0125276
Nigeria,4.156112,8.044772,0.012124812,1.173106087,2013,OIL,Etim,ExxonMobil,Offshore,Small,12.12481171
Nigeria,4.142027,8.041971,0.001506709,0.145777879,2013,OIL,Etim,ExxonMobil,Offshore,Small,1.506708862
Nigeria,4.365161,7.998207,0.092229315,8.923418654,2013,OIL,Idoho,ExxonMobil,Offshore,Medium,92.2293151
Nigeria,4.304382,7.660039,0.313556604,30.33739164,2013,GAS,Oso,ExxonMobil,Offshore,Medium,313.5566044
Nigeria,4.288639,8.167033,0.18122778,17.5342444,2013,OIL,Unam,ExxonMobil,Offshore,Medium,181.22778
Nigeria,3.575497,7.393831,0.324090507,31.35657326,2013,OIL,Usan,ExxonMobil,Offshore,Medium,324.090507
Nigeria,3.53426,7.423296,0.000518149,0.050132176,2013,OIL,Usan,ExxonMobil,Offshore,Small,0.518148533
Nigeria,3.532265,7.432432,0,0,2013,OIL,Usan,ExxonMobil,Offshore,Small,0
Nigeria,4.242915,7.794583,0.037231224,3.602214752,2013,OIL,Usari,ExxonMobil,Offshore,Small,37.23122408
Nigeria,4.187277,8.234907,0,0,2013,OIL,Utue,ExxonMobil,Offshore,Small,0
Nigeria,4.017335,7.49207,0.078532876,7.598253644,2013,OIL,Yoho,ExxonMobil,Offshore,Medium,78.53287588
Nigeria,4.606262,8.014962,0.003378893,0.326916382,2013,GAS,Uquo,"Frontier Oil Ltd",Onshore,Small,3.378892688
Nigeria,5.715059,6.421528,0.022348878,2.162310264,2013,OIL,Umusadege,"Midwestern O&G",Onshore,Small,22.34887799
Nigeria,5.70242,6.440111,0,0,2013,OIL,Umusadege,"Midwestern O&G",Onshore,Small,0
Nigeria,4.576829,8.422644,0.004197592,0.406127567,2013,OIL,"Abana East","Moni Pulo",Offshore,Small,4.19759162
Nigeria,4.784876,5.650581,0,0,2013,OIL,Atala,NA,Onshore,Small,0
Nigeria,4.729251,7.118721,0.003207488,0.310332506,2013,OIL,"Dawes Island",NA,Onshore,Small,3.20748758
Nigeria,6.689055,6.927888,0.015108106,1.461747364,2013,NA,NA,NA,Onshore,Small,15.10810638
Nigeria,6.417933,2.989245,0.001566263,0.151539889,2013,NA,NA,NA,Onshore,Small,1.56626297
Nigeria,4.415452,7.139957,0.034367375,3.325130114,2013,NA,NLNG,NA,Offshore,Small,34.36737476
Nigeria,4.423445,7.155116,0.090766339,8.781872009,2013,OIL,NLNG,NA,Onshore,Medium,90.76633879
Nigeria,5.535151,5.537301,0.021721723,2.101631475,2013,OIL,Batan,"Neconde Energy",Onshore,Small,21.72172338
Nigeria,5.688247,5.378401,0,0,2013,OIL,"Jones Creek","Neconde Energy",Onshore,Small,0
Nigeria,5.524229,5.468029,0,0,2013,OIL,Odidi,"Neconde Energy",Onshore,Small,0
Nigeria,4.552183,8.011026,0.172563187,16.69592317,2013,OIL,"Qua Iboe","Network E&P",Onshore,Medium,172.5631867
Nigeria,4.529659,6.818466,0.055851568,5.403779931,2013,OIL,"Awoba (OML 24)","Newcross EP",Offshore,Medium,55.8515678
Nigeria,4.560722,6.710042,0.022344649,2.161901104,2013,OIL,Ekulama,"Newcross EP",Offshore,Small,22.34464905
Nigeria,4.549869,6.665711,0.016148366,1.562395126,2013,OIL,Ekulama,"Newcross EP",Onshore,Small,16.14836622
Nigeria,4.929133,6.653601,0.011342576,1.097422839,2013,OIL,Ogbele,"Niger Delta E & P",Onshore,Small,11.34257629
Nigeria,5.545515,6.764307,0.009170499,0.887268847,2013,OIL,Egbema,NPDC,Onshore,Small,9.170498581
Nigeria,5.544172,6.683921,0.021312758,2.062063079,2013,OIL,"Egbema West",NPDC,Onshore,Small,21.31275836
Nigeria,6.038037,5.717799,0.014763522,1.428407936,2013,OIL,Ogharefe,NPDC,Onshore,Small,14.76352178
Nigeria,5.568594,6.305043,0.038158042,3.691886712,2013,OIL,Ogini,NPDC,Onshore,Small,38.1580419
Nigeria,3.989576,7.289804,0.31040708,30.03266721,2013,OIL,Okono,NPDC,Offshore,Medium,310.4070799
Nigeria,5.950847,5.051043,0,0,2013,OIL,Opuama,NPDC,Onshore,Small,0
Nigeria,6.063026,5.586879,0.176760187,17.10199351,2013,OIL,Oredo,NPDC,Onshore,Medium,176.7601868
Nigeria,5.51603,5.937895,0.03231353,3.126415449,2013,OIL,"Ughelli East",NPDC,Onshore,Small,32.31352991
Nigeria,5.53871,5.894477,0.01429065,1.382656352,2013,OIL,"Ughelli West",NPDC,Onshore,Small,14.29064951
Nigeria,5.434143,5.884579,0.120413863,11.65034466,2013,OIL,Utorogu,NPDC,Onshore,Medium,120.4138628
Nigeria,5.44816,5.87926,0.063503582,6.144131544,2013,OIL,Utorogu,NPDC,Onshore,Medium,63.50358155
Nigeria,4.102109,8.171163,0.064072862,6.199210843,2013,OIL,Ebok,"Oriental Energy",Offshore,Medium,64.0728618
Nigeria,5.666113,6.394499,0.013446133,1.300947286,2013,OIL,Umuseti,"Pillar Oil",Onshore,Small,13.44613335
Nigeria,5.881206,6.217936,0.078168832,7.563031506,2013,OIL,Egbaoma,"Platform Petroleum",Onshore,Medium,78.16883225
Nigeria,4.493538,7.270521,0.004695571,0.454308363,2013,OIL,Asaramatoru,"Prime Energy",Offshore,Small,4.695571367
Nigeria,6.065285,5.437123,0.052482907,5.077853545,2013,OIL,Oki,"Sahara Energy",Onshore,Medium,52.48290737
Nigeria,4.581788,8.191209,0,0,2013,GAS,"Stubb Creek","Savannah Energy",Onshore,Small,0
Nigeria,5.864093,5.692111,0.036934015,3.573459067,2013,OIL,Amukpe,"SEPLAT Petroleum Development",Onshore,Small,36.93401543
Nigeria,4.626234,6.814585,0.026888097,2.601491133,2013,OIL,Idama,"SEPLAT Petroleum Development",Offshore,Small,26.8880969
Nigeria,4.3483,7.111652,0.011244867,1.087969228,2013,OIL,Inda,"SEPLAT Petroleum Development",Offshore,Small,11.24486709
Nigeria,6.013348,5.865418,0.149081929,14.42405231,2013,OIL,Oben,"SEPLAT Petroleum Development",Onshore,Medium,149.081929
Nigeria,4.526689,6.632389,0.074572164,7.215044788,2013,OIL,Robertkiri,"SEPLAT Petroleum Development",Onshore,Medium,74.57216399
Nigeria,5.900414,5.582542,0.199688134,19.32033015,2013,OIL,Sapele,"SEPLAT Petroleum Development",Onshore,Medium,199.6881337
Nigeria,5.727132,4.831465,0.011696299,1.131646397,2013,OIL,"Ukpokiti (OML 108)","Shebah E&P Company",Offshore,Small,11.69629894
Nigeria,5.197658,6.491347,0.008078752,0.781639628,2013,OIL,Adibawa,Shell,Onshore,Small,8.07875214
Nigeria,4.841387,7.25394,0.010470616,1.013058521,2013,OIL,"Afam Umuosi",Shell,Onshore,Small,10.47061638
Nigeria,4.933476,6.976427,0.025610455,2.477876019,2013,OIL,Agbada,Shell,Onshore,Small,25.61045458
Nigeria,4.930375,7.016196,0.017766867,1.718989149,2013,OIL,Agbada,Shell,Onshore,Small,17.76686694
Nigeria,5.192844,6.761927,0.029481826,2.852441002,2013,OIL,Ahia,Shell,Onshore,Small,29.48182644
Nigeria,4.401454,6.646596,0.052539096,5.083289943,2013,OIL,Belema,Shell,Onshore,Medium,52.53909607
Nigeria,5.006007,5.686542,0.035499725,3.434687846,2013,OIL,Benisede,Shell,Onshore,Small,35.49972493
Nigeria,4.998086,5.687363,0.033016184,3.194399041,2013,OIL,Benisede,Shell,Onshore,Small,33.01618439
Nigeria,4.554694,4.615805,0.081219583,7.858199322,2013,OIL,Bonga,Shell,Offshore,Medium,81.21958293
Nigeria,4.468792,7.196087,0.00947998,0.917211957,2013,OIL,Bonny,Shell,Onshore,Small,9.479980026
Nigeria,4.66178,6.076893,0.057342638,5.548044774,2013,OIL,"Diebu Creek",Shell,Onshore,Medium,57.34263846
Nigeria,4.802516,5.311433,0.008699874,0.84173472,2013,OIL,EA,Shell,Offshore,Small,8.699873859
Nigeria,4.82957,7.108037,0.018013033,1.742806296,2013,OIL,Elelenwa,Shell,Onshore,Small,18.01303259
Nigeria,5.536295,5.194801,0.076607969,7.412014083,2013,OIL,"Escravos Beach",Shell,Onshore,Medium,76.60796931
Nigeria,5.025551,6.358518,0.013283866,1.28524754,2013,OIL,Etelebou,Shell,Onshore,Small,13.2838663
Nigeria,5.376627,5.307871,0.032130769,3.108732848,2013,OIL,"Forcados Yokri",Shell,Offshore,Small,32.13076877
Nigeria,5.360204,5.324809,0.007114288,0.688325281,2013,OIL,"Forcados Yokri",Shell,Offshore,Small,7.114287891
Nigeria,5.410016,5.318099,0.008613639,0.833391279,2013,OIL,"Forcados Yokri",Shell,Offshore,Small,8.613638991
Nigeria,5.431443,5.26774,0.005990218,0.579568702,2013,OIL,"Forcados Yokri",Shell,Offshore,Small,5.990218161
Nigeria,5.345315,5.367339,0.001890478,0.18290848,2013,OIL,"Forcados Yokri",Shell,Onshore,Small,1.890477683
Nigeria,5.336556,5.352246,0.000218732,0.021162869,2013,OIL,"Forcados Yokri",Shell,Onshore,Small,0.218731963
Nigeria,5.018598,6.300172,0.058624037,5.672023269,2013,GAS,Gbaran,Shell,Onshore,Medium,58.62403655
Nigeria,4.980622,7.183092,0.037638444,3.641614334,2013,OIL,"Imo River",Shell,Onshore,Small,37.63844429
Nigeria,4.987072,7.168567,0.011155261,1.079299604,2013,OIL,"Imo River",Shell,Onshore,Small,11.1552609
Nigeria,4.864771,7.246198,0.022883913,2.214076221,2013,OIL,Isimiri,Shell,Onshore,Small,22.8839127
Nigeria,4.88602,6.372504,0.013807515,1.335911911,2013,OIL,"Kolo Creek",Shell,Onshore,Small,13.80751541
Nigeria,4.9825,7.117503,0.009053153,0.875915359,2013,OIL,Nkali,Shell,Onshore,Small,9.053152917
Nigeria,4.800744,6.089971,0.03610124,3.492885921,2013,OIL,"Nun River",Shell,Onshore,Small,36.10123975
Nigeria,5.007743,6.811342,0.007138922,0.690708713,2013,OIL,Obele,Shell,Onshore,Small,7.1389222
Nigeria,4.893178,7.119541,0.01446513,1.3995378,2013,OIL,"Obigbo North (OML 11)",Shell,Onshore,Small,14.46513021
Nigeria,5.661119,6.705848,0.026688568,2.582186197,2013,OIL,Oguta,Shell,Onshore,Small,26.68856787
Nigeria,4.913094,5.773726,0.065203438,6.308596899,2013,OIL,Opukushi,Shell,Onshore,Medium,65.20343759
Nigeria,5.654645,5.14771,0.033832103,3.273341267,2013,OIL,Otumara,Shell,Onshore,Small,33.83210346
Nigeria,4.981302,6.684008,0.020679364,2.000780564,2013,OIL,Rumuekpe,Shell,Onshore,Small,20.67936385
Nigeria,5.624213,5.172899,0.050262862,4.863058586,2013,OIL,Saghara,Shell,Onshore,Small,50.26286226
Nigeria,5.615888,5.20193,0.035724184,3.456404827,2013,OIL,Saghara,Shell,Onshore,Small,35.724184
Nigeria,4.65579,6.614816,0.042558504,4.117642538,2013,OIL,Soku,Shell,Onshore,Small,42.5585043
Nigeria,4.648893,6.63303,0.000800074,0.077409162,2013,OIL,Soku,Shell,Onshore,Small,0.800073857
Nigeria,4.880939,5.615126,0.092670544,8.966108687,2013,GAS,Tunu,Shell,Onshore,Medium,92.67054426
Nigeria,5.112547,6.55665,0.009741257,0.942491209,2013,OIL,Ubie,Shell,Onshore,Small,9.741257481
Nigeria,5.008144,7.018997,0.011146951,1.078495589,2013,OIL,Umuechem,Shell,Onshore,Small,11.14695089
Nigeria,5.548873,6.012966,0.002304432,0.222959571,2013,OIL,Afiesere,"Shoreline Natural Resources",Onshore,Small,2.304431666
Nigeria,5.651901,6.069358,0.030066869,2.909045354,2013,OIL,Kokori,"Shoreline Natural Resources",Onshore,Small,30.0668691
Nigeria,5.459583,6.179629,0.033061431,3.198776772,2013,OIL,Olomoro-Oleh,"Shoreline Natural Resources",Onshore,Small,33.06143108
Nigeria,5.356241,6.144253,0.016318529,1.578858829,2013,OIL,Oroni,"Shoreline Natural Resources",Onshore,Small,16.31852927
Nigeria,5.489939,6.13561,0.012247451,1.184971742,2013,OIL,Oweh,"Shoreline Natural Resources",Onshore,Small,12.24745094
Nigeria,5.327181,6.241895,0.001684339,0.162964051,2013,OIL,"Uzere West","Shoreline Natural Resources",Onshore,Small,1.684339087
Nigeria,5.716869,6.48592,0.048148097,4.658449721,2013,OIL,Okwuibome,"Sterling Global",Onshore,Small,48.14809703
Nigeria,5.823731,6.4422,0,0,2013,GAS,Matsogo,"Swift Oil",Onshore,Small,0
Nigeria,3.955456,7.758371,0.016072718,1.555076017,2013,OIL,Afia,TotalEnergies,Offshore,Small,16.07271849
Nigeria,3.142144,6.823137,0.079714909,7.712618297,2013,GAS,Akpo,TotalEnergies,Offshore,Medium,79.71490869
Nigeria,4.13571,7.515565,0.080159982,7.755680295,2013,OIL,Amenam-Kpono,TotalEnergies,Offshore,Medium,80.15998234
Nigeria,4.035214,7.686007,0.028710592,2.777822144,2013,OIL,Edikan,TotalEnergies,Offshore,Small,28.71059217
Nigeria,5.245901,6.659867,0.003270448,0.316424134,2013,GAS,Ibewa,TotalEnergies,Onshore,Small,3.270448497
Nigeria,3.95392,7.774897,0.02715591,2.627402725,2013,OIL,Ime,TotalEnergies,Offshore,Small,27.15590999
Nigeria,5.238211,6.626947,0.098941203,9.572810739,2013,OIL,Obagi,TotalEnergies,Onshore,Medium,98.94120318
Nigeria,5.249955,6.599884,0.124181463,12.01486948,2013,OIL,"Obagi SW",TotalEnergies,Onshore,Medium,124.181463
Nigeria,3.978451,7.757837,0.00521165,0.504240251,2013,OIL,Odudu,TotalEnergies,Offshore,Small,5.21164979
Nigeria,4.12824,8.096095,0.222530319,21.53036913,2013,OIL,Ofon,TotalEnergies,Offshore,Medium,222.5303189
Nigeria,4.316774,8.36674,0.109685074,10.61230732,2014,OIL,Adanga,Addax,Offshore,Medium,109.6850741
Nigeria,4.35386,8.245211,0.031141552,3.013023625,2014,OIL,Akam,Addax,Offshore,Small,31.14155192
Nigeria,4.271774,8.337887,0.062979548,6.093429976,2014,OIL,Ebughu,Addax,Offshore,Medium,62.97954799
Nigeria,5.619424,6.815036,0.068644848,6.64156199,2014,OIL,Izombe,Addax,Onshore,Medium,68.6448476
Nigeria,4.221047,8.333957,0.022381734,2.165489127,2014,OIL,Mimbo,Addax,Offshore,Small,22.38173359
Nigeria,4.243009,8.322505,0,0,2014,OIL,Mimbo,Addax,Offshore,Small,0
Nigeria,3.854964,6.980177,0.120912168,11.69855693,2014,OIL,Okwori,Addax,Offshore,Medium,120.9121678
Nigeria,4.453513,6.325799,0.021918295,2.120650286,2014,OIL,"Nembe Creek","Aiteo Eastern E&P Company",Onshore,Small,21.91829511
Nigeria,4.433297,6.324913,0.020982783,2.030137115,2014,OIL,"Nembe Creek","Aiteo Eastern E&P Company",Offshore,Small,20.98278283
Nigeria,4.441572,6.361473,0.023029974,2.228207996,2014,OIL,"Nembe Creek","Aiteo Eastern E&P Company",Onshore,Small,23.02997375
Nigeria,4.451806,6.283618,0.002208163,0.213645304,2014,OIL,"Nembe Creek","Aiteo Eastern E&P Company",Onshore,Small,2.208162679
Nigeria,4.420146,6.517679,0.031193896,3.018088059,2014,OIL,"Odeama Creek","Aiteo Eastern E&P Company",Onshore,Small,31.19389613
Nigeria,4.540289,6.503308,0.010024005,0.969847738,2014,OIL,"Santa Barbara","Aiteo Eastern E&P Company",Onshore,Small,10.02400493
Nigeria,4.349905,7.312247,0.010966053,1.060993248,2014,GAS,"Ima Gas","Amni International",Offshore,Small,10.96605285
Nigeria,4.403847,7.828388,0.072920512,7.05524329,2014,OIL,Okoro,"Amni International",Offshore,Medium,72.92051194
Nigeria,5.597813,4.989237,0.054908781,5.312562889,2014,OIL,"Ejulebe (OML 109)","Atlas Petroleum International",Offshore,Medium,54.90878056
Nigeria,5.331271,5.208995,0.006703667,0.648596655,2014,OIL,Ajapa,"Brittania-U Nigeria",Offshore,Small,6.703666786
Nigeria,5.673479,5.274604,0.005191392,0.502280286,2014,OIL,Abiteye,Chevron,Onshore,Small,5.191392285
Nigeria,3.465856,5.561246,0.080970283,7.834078881,2014,OIL,"Agbami-Ekoli (OML 127)",Chevron,Offshore,Medium,80.97028254
Nigeria,5.860803,5.133084,0.006155354,0.595545991,2014,OIL,"Benin River",Chevron,Onshore,Small,6.155353793
Nigeria,5.686002,5.053255,0.109576837,10.6018351,2014,OIL,Delta,Chevron,Offshore,Medium,109.5768369
Nigeria,5.600608,5.109032,0.049291981,4.769123346,2014,OIL,"Delta South",Chevron,Offshore,Small,49.29198067
Nigeria,5.817179,5.200836,0.016691267,1.614922179,2014,OIL,Dibi,Chevron,Onshore,Small,16.69126736
Nigeria,5.870053,4.939616,0,0,2014,OIL,Ewan,Chevron,Offshore,Small,0
Nigeria,4.326663,5.821515,0.068274889,6.605767599,2014,OIL,Funiwa,Chevron,Offshore,Medium,68.27488937
Nigeria,5.783992,5.428424,0.061304238,5.931339469,2014,OIL,Makaraba,Chevron,Onshore,Medium,61.30423754
Nigeria,5.828326,4.797094,0.04865971,4.707949558,2014,OIL,Malu,Chevron,Offshore,Small,48.65970993
Nigeria,5.436448,5.140352,0.065559201,6.343017885,2014,OIL,Meji,Chevron,Offshore,Medium,65.55920078
Nigeria,5.777357,4.889021,0.063602651,6.153716773,2014,OIL,Meren,Chevron,Offshore,Medium,63.6026511
Nigeria,5.758847,4.923832,0.031328749,3.031135415,2014,OIL,Meren,Chevron,Offshore,Small,31.32874901
Nigeria,4.36727,5.791606,0,0,2014,OIL,"North Apoi",Chevron,Offshore,Small,0
Nigeria,5.55965,5.072566,0.045510185,4.403225126,2014,OIL,Okan,Chevron,Offshore,Small,45.51018543
Nigeria,5.574158,5.058795,0.023092373,2.234245259,2014,OIL,Okan,Chevron,Offshore,Small,23.09237278
Nigeria,5.537961,5.091546,0.015817651,1.53039763,2014,OIL,Okan,Chevron,Offshore,Small,15.81765136
Nigeria,5.738643,4.725901,0.035909015,3.474287716,2014,OIL,Opolo,Chevron,Offshore,Small,35.90901525
Nigeria,5.916131,5.01622,0.060998748,5.901782629,2014,OIL,Opuekeba,Chevron,Onshore,Medium,60.99874845
Nigeria,5.88147,4.834434,0.146354115,14.16012948,2014,OIL,Parabe,Chevron,Offshore,Medium,146.3541154
Nigeria,5.717819,5.004647,0.041602705,4.025166542,2014,OIL,Tapa,Chevron,Offshore,Small,41.60270494
Nigeria,4.337989,5.925766,0.048624222,4.704516043,2014,OIL,Otuo,ConOil,Offshore,Small,48.62422233
Nigeria,6.153596,5.342703,0.036846775,3.565018343,2014,OIL,"Gilli Gilli","Dubri Oil",Onshore,Small,36.84677508
Nigeria,5.684999,6.359476,0.084711563,8.196057171,2014,OIL,Ebendo,Energia,Onshore,Medium,84.71156277
Nigeria,5.708656,4.480765,0.049517327,4.790926164,2014,OIL,Abo,Eni,Offshore,Small,49.51732693
Nigeria,3.940647,6.397746,0.09871911,9.55132266,2014,OIL,Agbara,Eni,Offshore,Medium,98.71910995
Nigeria,5.634528,6.669413,0.045847318,4.435843516,2014,OIL,Akri,Eni,Onshore,Small,45.84731763
Nigeria,5.686671,6.591909,0.001824506,0.176525576,2014,OIL,Beniku,Eni,Onshore,Small,1.824506235
Nigeria,4.851438,5.69192,0.080738134,7.811617972,2014,OIL,"Clough Creek",Eni,Onshore,Medium,80.73813449
Nigeria,5.488513,6.243742,0.009293197,0.899140225,2014,GAS,Irri,Eni,Onshore,Small,9.293196958
Nigeria,5.659787,6.516926,0.152813154,14.78505777,2014,OIL,Kwale,Eni,Onshore,Medium,152.8131544
Nigeria,5.459827,6.694868,0.104817654,10.14137217,2014,OIL,M'Bede,Eni,Onshore,Medium,104.817654
Nigeria,4.628705,6.263604,0.111858394,10.82258149,2014,OIL,Obama,Eni,Onshore,Medium,111.8583939
Nigeria,5.386461,6.657315,0.109630364,10.60701399,2014,OIL,Obiafu-Obrikom,Eni,Onshore,Medium,109.630364
Nigeria,4.813912,5.961619,0.052234198,5.053790329,2014,OIL,Ogbainbiri,Eni,Onshore,Medium,52.23419844
Nigeria,5.099876,6.506743,0.11332758,10.964729,2014,OIL,Oshi,Eni,Onshore,Medium,113.3275805
Nigeria,4.753029,6.02998,0,0,2014,OIL,"Osiama Creek South",Eni,Onshore,Small,0
Nigeria,4.556357,5.921292,0.043727525,4.230748236,2014,OIL,Tebidaba,Eni,Onshore,Small,43.72752499
Nigeria,5.386699,4.589897,0.114098549,11.03932211,2014,OIL,"Oyo NW","Erin Energy",Offshore,Medium,114.0985486
Nigeria,4.653398,7.059697,0.011268171,1.090223903,2014,OIL,Alakiri,"Eroton E&P Company",Onshore,Small,11.26817062
Nigeria,4.556519,7.004341,0.054114746,5.235737997,2014,OIL,"Cawthorne Channel","Eroton E&P Company",Offshore,Medium,54.11474551
Nigeria,4.552878,7.045199,0.045713943,4.422939223,2014,OIL,"Cawthorne Channel","Eroton E&P Company",Onshore,Small,45.7139434
Nigeria,4.559199,6.97518,0.045144959,4.367888537,2014,OIL,"Cawthorne Channel","Eroton E&P Company",Onshore,Small,45.14495888
Nigeria,4.106297,7.799394,0.010126623,0.979776318,2014,OIL,Asabo,ExxonMobil,Offshore,Small,10.12662324
Nigeria,4.146036,7.972153,0.199542339,19.30622413,2014,OIL,Edop,ExxonMobil,Offshore,Medium,199.5423389
Nigeria,4.106596,7.624868,0.079971898,7.737482666,2014,OIL,Ekpe,ExxonMobil,Offshore,Medium,79.97189806
Nigeria,5.359096,4.342111,0.169191569,16.36971066,2014,OIL,Erha,ExxonMobil,Offshore,Medium,169.191569
Nigeria,4.156112,8.044772,0.014056727,1.360023768,2014,OIL,Etim,ExxonMobil,Offshore,Small,14.05672708
Nigeria,4.142027,8.041971,0.001810985,0.175217407,2014,OIL,Etim,ExxonMobil,Offshore,Small,1.810985459
Nigeria,4.365161,7.998207,0.110868586,10.72681504,2014,OIL,Idoho,ExxonMobil,Offshore,Medium,110.8685855
Nigeria,4.304382,7.660039,0.282301196,27.31335215,2014,GAS,Oso,ExxonMobil,Offshore,Medium,282.3011964
Nigeria,4.288639,8.167033,0.161430135,15.61877237,2014,OIL,Unam,ExxonMobil,Offshore,Medium,161.4301351
Nigeria,3.575497,7.393831,0.329653188,31.89477669,2014,OIL,Usan,ExxonMobil,Offshore,Medium,329.6531883
Nigeria,3.53426,7.423296,0.0007763,0.075108993,2014,OIL,Usan,ExxonMobil,Offshore,Small,0.776300122
Nigeria,3.532265,7.432432,0,0,2014,OIL,Usan,ExxonMobil,Offshore,Small,0
Nigeria,4.242915,7.794583,0.063131849,6.108165477,2014,OIL,Usari,ExxonMobil,Offshore,Medium,63.13184894
Nigeria,4.187277,8.234907,0,0,2014,OIL,Utue,ExxonMobil,Offshore,Small,0
Nigeria,4.017335,7.49207,0.153724298,14.87321326,2014,OIL,Yoho,ExxonMobil,Offshore,Medium,153.7242985
Nigeria,4.606262,8.014962,0,0,2014,GAS,Uquo,"Frontier Oil Ltd",Onshore,Small,0
Nigeria,5.715059,6.421528,0.025141811,2.432533596,2014,OIL,Umusadege,"Midwestern O&G",Onshore,Small,25.14181125
Nigeria,5.70242,6.440111,0,0,2014,OIL,Umusadege,"Midwestern O&G",Onshore,Small,0
Nigeria,4.576829,8.422644,0.005426202,0.524998708,2014,OIL,"Abana East","Moni Pulo",Offshore,Small,5.426201905
Nigeria,4.784876,5.650581,0.001306535,0.126410567,2014,OIL,Atala,NA,Onshore,Small,1.30653514
Nigeria,4.729251,7.118721,0.001753087,0.169615628,2014,OIL,"Dawes Island",NA,Onshore,Small,1.75308744
Nigeria,6.689055,6.927888,0.014145476,1.368610416,2014,NA,NA,NA,Onshore,Small,14.14547565
Nigeria,6.417933,2.989245,0,0,2014,NA,NA,NA,Onshore,Small,0
Nigeria,4.415452,7.139957,0.050135107,4.850697933,2014,NA,NLNG,NA,Offshore,Small,50.1351069
Nigeria,4.423445,7.155116,0.080097288,7.749614419,2014,OIL,NLNG,NA,Onshore,Medium,80.09728758
Nigeria,5.535151,5.537301,0.012543151,1.213581503,2014,OIL,Batan,"Neconde Energy",Onshore,Small,12.54315137
Nigeria,5.688247,5.378401,0.004681347,0.452932095,2014,OIL,"Jones Creek","Neconde Energy",Onshore,Small,4.681346754
Nigeria,5.524229,5.468029,0.037194554,3.598666787,2014,OIL,Odidi,"Neconde Energy",Onshore,Small,37.19455356
Nigeria,4.552183,8.011026,0.163863402,15.85419703,2014,OIL,"Qua Iboe","Network E&P",Onshore,Medium,163.8634015
Nigeria,4.529659,6.818466,0.060577629,5.861038255,2014,OIL,"Awoba (OML 24)","Newcross EP",Offshore,Medium,60.57762893
Nigeria,4.560722,6.710042,0.032690881,3.162925156,2014,OIL,Ekulama,"Newcross EP",Offshore,Small,32.69088139
Nigeria,4.549869,6.665711,0.009061049,0.876679316,2014,OIL,Ekulama,"Newcross EP",Onshore,Small,9.061048908
Nigeria,4.929133,6.653601,0.020614392,1.994494371,2014,OIL,Ogbele,"Niger Delta E & P",Onshore,Small,20.61439196
Nigeria,5.545515,6.764307,0.003898342,0.377174454,2014,OIL,Egbema,NPDC,Onshore,Small,3.898342433
Nigeria,5.544172,6.683921,0.028276224,2.735795923,2014,OIL,"Egbema West",NPDC,Onshore,Small,28.27622395
Nigeria,6.038037,5.717799,0.03495706,3.382183684,2014,OIL,Ogharefe,NPDC,Onshore,Small,34.95706038
Nigeria,5.568594,6.305043,0.029324173,2.837187613,2014,OIL,Ogini,NPDC,Onshore,Small,29.32417278
Nigeria,3.989576,7.289804,0.271691883,26.28687431,2014,OIL,Okono,NPDC,Offshore,Medium,271.6918827
Nigeria,5.950847,5.051043,0.015289448,1.479292624,2014,OIL,Opuama,NPDC,Onshore,Small,15.28944801
Nigeria,6.063026,5.586879,0.105482159,10.20566473,2014,OIL,Oredo,NPDC,Onshore,Medium,105.4821593
Nigeria,5.51603,5.937895,0.041073348,3.973949947,2014,OIL,"Ughelli East",NPDC,Onshore,Small,41.07334824
Nigeria,5.53871,5.894477,0.010645245,1.029954274,2014,OIL,"Ughelli West",NPDC,Onshore,Small,10.64524495
Nigeria,5.434143,5.884579,0.112917699,10.9250719,2014,OIL,Utorogu,NPDC,Onshore,Medium,112.9176987
Nigeria,5.44816,5.87926,0.059984099,5.803612721,2014,OIL,Utorogu,NPDC,Onshore,Medium,59.98409882
Nigeria,4.102109,8.171163,0.04925117,4.765174804,2014,OIL,Ebok,"Oriental Energy",Offshore,Small,49.25116993
Nigeria,5.666113,6.394499,0.0243177,2.3527988,2014,OIL,Umuseti,"Pillar Oil",Onshore,Small,24.31770046
Nigeria,5.881206,6.217936,0.102975256,9.963115526,2014,OIL,Egbaoma,"Platform Petroleum",Onshore,Medium,102.9752561
Nigeria,4.493538,7.270521,0.011942524,1.155469267,2014,OIL,Asaramatoru,"Prime Energy",Offshore,Small,11.94252374
Nigeria,6.065285,5.437123,0.030508985,2.951821225,2014,OIL,Oki,"Sahara Energy",Onshore,Small,30.50898545
Nigeria,4.581788,8.191209,0,0,2014,GAS,"Stubb Creek","Savannah Energy",Onshore,Small,0
Nigeria,5.864093,5.692111,0.029044826,2.81016013,2014,OIL,Amukpe,"SEPLAT Petroleum Development",Onshore,Small,29.04482622
Nigeria,4.626234,6.814585,0.024629636,2.382979395,2014,OIL,Idama,"SEPLAT Petroleum Development",Offshore,Small,24.62963647
Nigeria,4.3483,7.111652,0.008674737,0.839302647,2014,OIL,Inda,"SEPLAT Petroleum Development",Offshore,Small,8.674736809
Nigeria,6.013348,5.865418,0.157064569,15.19639284,2014,OIL,Oben,"SEPLAT Petroleum Development",Onshore,Medium,157.0645688
Nigeria,4.526689,6.632389,0.083546682,8.08335205,2014,OIL,Robertkiri,"SEPLAT Petroleum Development",Onshore,Medium,83.5466823
Nigeria,5.900414,5.582542,0.136634949,13.21977563,2014,OIL,Sapele,"SEPLAT Petroleum Development",Onshore,Medium,136.634949
Nigeria,5.727132,4.831465,0.029563921,2.860383866,2014,OIL,"Ukpokiti (OML 108)","Shebah E&P Company",Offshore,Small,29.56392109
Nigeria,5.197658,6.491347,0.009472912,0.916528115,2014,OIL,Adibawa,Shell,Onshore,Small,9.472912079
Nigeria,4.841387,7.25394,0.032056245,3.101522467,2014,OIL,"Afam Umuosi",Shell,Onshore,Small,32.05624481
Nigeria,4.933476,6.976427,0.025074,2.425972722,2014,OIL,Agbada,Shell,Onshore,Small,25.07400036
Nigeria,4.930375,7.016196,0.025205837,2.438728229,2014,OIL,Agbada,Shell,Onshore,Small,25.2058368
Nigeria,5.192844,6.761927,0.026769125,2.589980275,2014,OIL,Ahia,Shell,Onshore,Small,26.76912472
Nigeria,4.401454,6.646596,0.063571008,6.150655222,2014,OIL,Belema,Shell,Onshore,Medium,63.57100799
Nigeria,5.006007,5.686542,0.024207659,2.342152043,2014,OIL,Benisede,Shell,Onshore,Small,24.20765933
Nigeria,4.998086,5.687363,0.028090151,2.717792861,2014,OIL,Benisede,Shell,Onshore,Small,28.09015063
Nigeria,4.554694,4.615805,0.040397014,3.908512879,2014,OIL,Bonga,Shell,Offshore,Small,40.39701373
Nigeria,4.468792,7.196087,0.007288118,0.705143781,2014,OIL,Bonny,Shell,Onshore,Small,7.288117985
Nigeria,4.66178,6.076893,0.027712385,2.681243097,2014,OIL,"Diebu Creek",Shell,Onshore,Small,27.71238513
Nigeria,4.802516,5.311433,0.01930073,1.867394239,2014,OIL,EA,Shell,Offshore,Small,19.30072973
Nigeria,4.82957,7.108037,0.014778427,1.429850012,2014,OIL,Elelenwa,Shell,Onshore,Small,14.77842657
Nigeria,5.536295,5.194801,0.065344501,6.322245121,2014,OIL,"Escravos Beach",Shell,Onshore,Medium,65.3445008
Nigeria,5.025551,6.358518,0.010117515,0.978895049,2014,OIL,Etelebou,Shell,Onshore,Small,10.11751476
Nigeria,5.376627,5.307871,0.025723571,2.488820348,2014,OIL,"Forcados Yokri",Shell,Offshore,Small,25.72357131
Nigeria,5.360204,5.324809,0.008294931,0.802555455,2014,OIL,"Forcados Yokri",Shell,Offshore,Small,8.29493077
Nigeria,5.410016,5.318099,0.010033173,0.970734729,2014,OIL,"Forcados Yokri",Shell,Offshore,Small,10.03317256
Nigeria,5.431443,5.26774,0.005251278,0.508074342,2014,OIL,"Forcados Yokri",Shell,Offshore,Small,5.25127761
Nigeria,5.345315,5.367339,0,0,2014,OIL,"Forcados Yokri",Shell,Onshore,Small,0
Nigeria,5.336556,5.352246,0.001482134,0.14340017,2014,OIL,"Forcados Yokri",Shell,Onshore,Small,1.482133699
Nigeria,5.018598,6.300172,0.05495521,5.317055071,2014,GAS,Gbaran,Shell,Onshore,Medium,54.95521017
Nigeria,4.980622,7.183092,0.031560306,3.053539099,2014,OIL,"Imo River",Shell,Onshore,Small,31.5603056
Nigeria,4.987072,7.168567,0.007341882,0.710345556,2014,OIL,"Imo River",Shell,Onshore,Small,7.341881699
Nigeria,4.864771,7.246198,0.026559896,2.569736845,2014,OIL,Isimiri,Shell,Onshore,Small,26.55989575
Nigeria,4.88602,6.372504,0.009485303,0.917726984,2014,OIL,"Kolo Creek",Shell,Onshore,Small,9.485303166
Nigeria,4.9825,7.117503,0.007199961,0.696614358,2014,OIL,Nkali,Shell,Onshore,Small,7.199960872
Nigeria,4.800744,6.089971,0.022541457,2.180942804,2014,OIL,"Nun River",Shell,Onshore,Small,22.54145736
Nigeria,5.007743,6.811342,0.001421713,0.137554325,2014,OIL,Obele,Shell,Onshore,Small,1.421713103
Nigeria,4.893178,7.119541,0.01604557,1.552449378,2014,OIL,"Obigbo North (OML 11)",Shell,Onshore,Small,16.04557048
Nigeria,5.661119,6.705848,0.033138025,3.206187441,2014,OIL,Oguta,Shell,Onshore,Small,33.13802515
Nigeria,4.913094,5.773726,0.096086817,9.296641705,2014,OIL,Opukushi,Shell,Onshore,Medium,96.08681722
Nigeria,5.654645,5.14771,0.046768517,4.524971836,2014,OIL,Otumara,Shell,Onshore,Small,46.76851658
Nigeria,4.981302,6.684008,0.014088784,1.363125376,2014,OIL,Rumuekpe,Shell,Onshore,Small,14.08878421
Nigeria,5.624213,5.172899,0.043407841,4.199817991,2014,OIL,Saghara,Shell,Onshore,Small,43.40784086
Nigeria,5.615888,5.20193,0.043034334,4.163680248,2014,OIL,Saghara,Shell,Onshore,Small,43.03433387
Nigeria,4.65579,6.614816,0.043104718,4.170490053,2014,OIL,Soku,Shell,Onshore,Small,43.10471761
Nigeria,4.648893,6.63303,0.001580334,0.152901278,2014,OIL,Soku,Shell,Onshore,Small,1.580333803
Nigeria,4.880939,5.615126,0.065937735,6.379642042,2014,GAS,Tunu,Shell,Onshore,Medium,65.93773518
Nigeria,5.112547,6.55665,0.007442134,0.720045235,2014,OIL,Ubie,Shell,Onshore,Small,7.442134169
Nigeria,5.008144,7.018997,0.004768528,0.461367097,2014,OIL,Umuechem,Shell,Onshore,Small,4.768527958
Nigeria,5.548873,6.012966,0.0029254,0.283039784,2014,OIL,Afiesere,"Shoreline Natural Resources",Onshore,Small,2.925399605
Nigeria,5.651901,6.069358,0.011627069,1.124948182,2014,OIL,Kokori,"Shoreline Natural Resources",Onshore,Small,11.62706855
Nigeria,5.459583,6.179629,0.017624976,1.705260813,2014,OIL,Olomoro-Oleh,"Shoreline Natural Resources",Onshore,Small,17.62497569
Nigeria,5.356241,6.144253,0.021585126,2.088415305,2014,OIL,Oroni,"Shoreline Natural Resources",Onshore,Small,21.58512569
Nigeria,5.489939,6.13561,0.006260959,0.605763559,2014,OIL,Oweh,"Shoreline Natural Resources",Onshore,Small,6.260958976
Nigeria,5.327181,6.241895,0.022906684,2.216279393,2014,OIL,"Uzere West","Shoreline Natural Resources",Onshore,Small,22.90668391
Nigeria,5.716869,6.48592,0.036562283,3.537493,2014,OIL,Okwuibome,"Sterling Global",Onshore,Small,36.56228282
Nigeria,5.823731,6.4422,0,0,2014,GAS,Matsogo,"Swift Oil",Onshore,Small,0
Nigeria,3.955456,7.758371,0.0120882,1.169563845,2014,OIL,Afia,TotalEnergies,Offshore,Small,12.08820033
Nigeria,3.142144,6.823137,0.114900568,11.11691954,2014,GAS,Akpo,TotalEnergies,Offshore,Medium,114.9005684
Nigeria,4.13571,7.515565,0.085803102,8.301666362,2014,OIL,Amenam-Kpono,TotalEnergies,Offshore,Medium,85.8031022
Nigeria,4.035214,7.686007,0.030805307,2.980491073,2014,OIL,Edikan,TotalEnergies,Offshore,Small,30.80530691
Nigeria,5.245901,6.659867,0.007395084,0.715492967,2014,GAS,Ibewa,TotalEnergies,Onshore,Small,7.395083526
Nigeria,3.95392,7.774897,0.030089936,2.911277139,2014,OIL,Ime,TotalEnergies,Offshore,Small,30.08993604
Nigeria,5.238211,6.626947,0.103968613,10.05922533,2014,OIL,Obagi,TotalEnergies,Onshore,Medium,103.9686132
Nigeria,5.249955,6.599884,0.131103024,12.68454791,2014,OIL,"Obagi SW",TotalEnergies,Onshore,Medium,131.1030236
Nigeria,3.978451,7.757837,0.009479093,0.917126119,2014,OIL,Odudu,TotalEnergies,Offshore,Small,9.479092836
Nigeria,4.12824,8.096095,0.168022253,16.25657635,2014,OIL,Ofon,TotalEnergies,Offshore,Medium,168.0222525
Nigeria,4.316774,8.36674,0.150389943,14.55060594,2015,OIL,Adanga,Addax,Offshore,Medium,150.3899427
Nigeria,4.35386,8.245211,0.028813684,2.787796504,2015,OIL,Akam,Addax,Offshore,Small,28.81368365
Nigeria,4.271774,8.337887,0.050277944,4.86451783,2015,OIL,Ebughu,Addax,Offshore,Small,50.27794449
Nigeria,5.619424,6.815036,0.062619349,6.058579802,2015,OIL,Izombe,Addax,Onshore,Medium,62.61934885
Nigeria,4.221047,8.333957,0.010282503,0.994858031,2015,OIL,Mimbo,Addax,Offshore,Small,10.28250253
Nigeria,4.243009,8.322505,0,0,2015,OIL,Mimbo,Addax,Offshore,Small,0
Nigeria,3.854964,6.980177,0.065403943,6.327996258,2015,OIL,Okwori,Addax,Offshore,Medium,65.40394253
Nigeria,4.453513,6.325799,0.034424451,3.33065235,2015,OIL,"Nembe Creek","Aiteo Eastern E&P Company",Onshore,Small,34.42445065
Nigeria,4.433297,6.324913,0.020816494,2.014048237,2015,OIL,"Nembe Creek","Aiteo Eastern E&P Company",Offshore,Small,20.81649385
Nigeria,4.441572,6.361473,0.033430798,3.234513938,2015,OIL,"Nembe Creek","Aiteo Eastern E&P Company",Onshore,Small,33.43079785
Nigeria,4.451806,6.283618,0.003634729,0.351669162,2015,OIL,"Nembe Creek","Aiteo Eastern E&P Company",Onshore,Small,3.634728711
Nigeria,4.420146,6.517679,0.018974776,1.835857407,2015,OIL,"Odeama Creek","Aiteo Eastern E&P Company",Onshore,Small,18.97477613
Nigeria,4.540289,6.503308,0.010251155,0.991825093,2015,OIL,"Santa Barbara","Aiteo Eastern E&P Company",Onshore,Small,10.25115515
Nigeria,4.349905,7.312247,0.016579688,1.604126636,2015,GAS,"Ima Gas","Amni International",Offshore,Small,16.57968843
Nigeria,4.403847,7.828388,0.047363525,4.582540433,2015,OIL,Okoro,"Amni International",Offshore,Small,47.36352534
Nigeria,5.597813,4.989237,0.042401472,4.102449236,2015,OIL,"Ejulebe (OML 109)","Atlas Petroleum International",Offshore,Small,42.40147167
Nigeria,5.331271,5.208995,0.010343245,1.000735064,2015,OIL,Ajapa,"Brittania-U Nigeria",Offshore,Small,10.34324547
Nigeria,5.673479,5.274604,0.003027151,0.292884529,2015,OIL,Abiteye,Chevron,Onshore,Small,3.027151426
Nigeria,3.465856,5.561246,0.124152777,12.01209405,2015,OIL,"Agbami-Ekoli (OML 127)",Chevron,Offshore,Medium,124.1527771
Nigeria,5.860803,5.133084,0.006302479,0.609780771,2015,OIL,"Benin River",Chevron,Onshore,Small,6.302479468
Nigeria,5.686002,5.053255,0.052719196,5.100715031,2015,OIL,Delta,Chevron,Offshore,Medium,52.71919564
Nigeria,5.600608,5.109032,0.046408613,4.490150274,2015,OIL,"Delta South",Chevron,Offshore,Small,46.40861317
Nigeria,5.817179,5.200836,0.01255291,1.21452572,2015,OIL,Dibi,Chevron,Onshore,Small,12.55291046
Nigeria,5.870053,4.939616,0,0,2015,OIL,Ewan,Chevron,Offshore,Small,0
Nigeria,4.326663,5.821515,0.05904486,5.712739031,2015,OIL,Funiwa,Chevron,Offshore,Medium,59.04486034
Nigeria,5.783992,5.428424,0.057007281,5.51559806,2015,OIL,Makaraba,Chevron,Onshore,Medium,57.00728064
Nigeria,5.828326,4.797094,0.040986108,3.965509223,2015,OIL,Malu,Chevron,Offshore,Small,40.98610789
Nigeria,5.436448,5.140352,0.044241799,4.280505587,2015,OIL,Meji,Chevron,Offshore,Small,44.24179946
Nigeria,5.777357,4.889021,0.040275173,3.896724478,2015,OIL,Meren,Chevron,Offshore,Small,40.27517297
Nigeria,5.758847,4.923832,0.018690432,1.80834637,2015,OIL,Meren,Chevron,Offshore,Small,18.69043173
Nigeria,4.36727,5.791606,0,0,2015,OIL,"North Apoi",Chevron,Offshore,Small,0
Nigeria,5.55965,5.072566,0.036307659,3.512857532,2015,OIL,Okan,Chevron,Offshore,Small,36.30765929
Nigeria,5.574158,5.058795,0.019347603,1.87192934,2015,OIL,Okan,Chevron,Offshore,Small,19.34760294
Nigeria,5.537961,5.091546,0.01946347,1.883139766,2015,OIL,Okan,Chevron,Offshore,Small,19.46346995
Nigeria,5.738643,4.725901,0.033488465,3.240093399,2015,OIL,Opolo,Chevron,Offshore,Small,33.4884652
Nigeria,5.916131,5.01622,0.000561908,0.054365986,2015,OIL,Opuekeba,Chevron,Onshore,Small,0.561907701
Nigeria,5.88147,4.834434,0.096622976,9.34851639,2015,OIL,Parabe,Chevron,Offshore,Medium,96.62297571
Nigeria,5.717819,5.004647,0.017183244,1.662522138,2015,OIL,Tapa,Chevron,Offshore,Small,17.18324379
Nigeria,4.337989,5.925766,0.043520514,4.2107194,2015,OIL,Otuo,ConOil,Offshore,Small,43.52051399
Nigeria,6.153596,5.342703,0.036276608,3.509853206,2015,OIL,"Gilli Gilli","Dubri Oil",Onshore,Small,36.27660764
Nigeria,5.684999,6.359476,0.181889032,17.59822223,2015,OIL,Ebendo,Energia,Onshore,Medium,181.8890322
Nigeria,5.708656,4.480765,0.122372187,11.83981745,2015,OIL,Abo,Eni,Offshore,Medium,122.3721868
Nigeria,3.940647,6.397746,0.083114029,8.041491783,2015,OIL,Agbara,Eni,Offshore,Medium,83.11402931
Nigeria,5.634528,6.669413,0.058259697,5.636772518,2015,OIL,Akri,Eni,Onshore,Medium,58.25969719
Nigeria,5.686671,6.591909,0.008034895,0.777396376,2015,OIL,Beniku,Eni,Onshore,Small,8.034895381
Nigeria,4.851438,5.69192,0.091080108,8.812230002,2015,OIL,"Clough Creek",Eni,Onshore,Medium,91.08010832
Nigeria,5.488513,6.243742,0.001351102,0.13072249,2015,GAS,Irri,Eni,Onshore,Small,1.351101651
Nigeria,5.659787,6.516926,0.149524045,14.46682818,2015,OIL,Kwale,Eni,Onshore,Medium,149.5240453
Nigeria,5.459827,6.694868,0.043946365,4.251921577,2015,OIL,M'Bede,Eni,Onshore,Small,43.94636519
Nigeria,4.628705,6.263604,0.08051338,7.789872379,2015,OIL,Obama,Eni,Onshore,Medium,80.51337969
Nigeria,5.386461,6.657315,0.133968943,12.96183284,2015,OIL,Obiafu-Obrikom,Eni,Onshore,Medium,133.968943
Nigeria,4.813912,5.961619,0.03465305,3.352769907,2015,OIL,Ogbainbiri,Eni,Onshore,Small,34.65304994
Nigeria,5.099876,6.506743,0.120174026,11.62713983,2015,OIL,Oshi,Eni,Onshore,Medium,120.1740257
Nigeria,4.753029,6.02998,0,0,2015,OIL,"Osiama Creek South",Eni,Onshore,Small,0
Nigeria,4.556357,5.921292,0.035946277,3.477892907,2015,OIL,Tebidaba,Eni,Onshore,Small,35.94627723
Nigeria,5.386699,4.589897,0.041161476,3.982476509,2015,OIL,"Oyo NW","Erin Energy",Offshore,Small,41.16147578
Nigeria,4.653398,7.059697,0.031284685,3.026872134,2015,OIL,Alakiri,"Eroton E&P Company",Onshore,Small,31.28468524
Nigeria,4.556519,7.004341,0.055421281,5.362148565,2015,OIL,"Cawthorne Channel","Eroton E&P Company",Offshore,Medium,55.42128065
Nigeria,4.552878,7.045199,0.047048869,4.552096602,2015,OIL,"Cawthorne Channel","Eroton E&P Company",Onshore,Small,47.04886862
Nigeria,4.559199,6.97518,0.049308246,4.77069704,2015,OIL,"Cawthorne Channel","Eroton E&P Company",Onshore,Small,49.30824582
Nigeria,4.106297,7.799394,0.022896156,2.215260784,2015,OIL,Asabo,ExxonMobil,Offshore,Small,22.89615593
Nigeria,4.146036,7.972153,0.241880229,23.40252165,2015,OIL,Edop,ExxonMobil,Offshore,Medium,241.8802286
Nigeria,4.106596,7.624868,0.070646644,6.835240834,2015,OIL,Ekpe,ExxonMobil,Offshore,Medium,70.64664397
Nigeria,5.359096,4.342111,0.120218681,11.63146033,2015,OIL,Erha,ExxonMobil,Offshore,Medium,120.218681
Nigeria,4.156112,8.044772,0.029174001,2.822658123,2015,OIL,Etim,ExxonMobil,Offshore,Small,29.17400108
Nigeria,4.142027,8.041971,0.000555047,0.053702173,2015,OIL,Etim,ExxonMobil,Offshore,Small,0.555046765
Nigeria,4.365161,7.998207,0.145549434,14.08227453,2015,OIL,Idoho,ExxonMobil,Offshore,Medium,145.5494341
Nigeria,4.304382,7.660039,0.247665003,23.96221317,2015,GAS,Oso,ExxonMobil,Offshore,Medium,247.6650031
Nigeria,4.288639,8.167033,0.159979284,15.47839885,2015,OIL,Unam,ExxonMobil,Offshore,Medium,159.9792837
Nigeria,3.575497,7.393831,0.202619114,19.60390986,2015,OIL,Usan,ExxonMobil,Offshore,Medium,202.6191138
Nigeria,3.53426,7.423296,0.00360557,0.348847958,2015,OIL,Usan,ExxonMobil,Offshore,Small,3.605569733
Nigeria,3.532265,7.432432,0.003231471,0.31265299,2015,OIL,Usan,ExxonMobil,Offshore,Small,3.231471283
Nigeria,4.242915,7.794583,0.042365393,4.098958496,2015,OIL,Usari,ExxonMobil,Offshore,Small,42.36539261
Nigeria,4.187277,8.234907,0,0,2015,OIL,Utue,ExxonMobil,Offshore,Small,0
Nigeria,4.017335,7.49207,0.110211473,10.66323779,2015,OIL,Yoho,ExxonMobil,Offshore,Medium,110.2114735
Nigeria,4.606262,8.014962,0.001147891,0.111061326,2015,GAS,Uquo,"Frontier Oil Ltd",Onshore,Small,1.147890782
Nigeria,5.715059,6.421528,0.038848276,3.758668574,2015,OIL,Umusadege,"Midwestern O&G",Onshore,Small,38.84827572
Nigeria,5.70242,6.440111,0.003353667,0.324475726,2015,OIL,Umusadege,"Midwestern O&G",Onshore,Small,3.353666919
Nigeria,4.576829,8.422644,0.002730265,0.264160031,2015,OIL,"Abana East","Moni Pulo",Offshore,Small,2.730265122
Nigeria,4.784876,5.650581,0.001095357,0.105978579,2015,OIL,Atala,NA,Onshore,Small,1.095357304
Nigeria,4.729251,7.118721,0.001532053,0.148229981,2015,OIL,"Dawes Island",NA,Onshore,Small,1.532052923
Nigeria,6.689055,6.927888,0.01524843,1.475324054,2015,NA,NA,NA,Onshore,Small,15.24843026
Nigeria,6.417933,2.989245,0,0,2015,NA,NA,NA,Onshore,Small,0
Nigeria,4.415452,7.139957,0.062564935,6.053315079,2015,NA,NLNG,NA,Offshore,Medium,62.56493453
Nigeria,4.423445,7.155116,0.084164462,8.143123819,2015,OIL,NLNG,NA,Onshore,Medium,84.16446227
Nigeria,5.535151,5.537301,0.00924242,0.894227437,2015,OIL,Batan,"Neconde Energy",Onshore,Small,9.242420117
Nigeria,5.688247,5.378401,0.010841403,1.048933027,2015,OIL,"Jones Creek","Neconde Energy",Onshore,Small,10.84140265
Nigeria,5.524229,5.468029,0.127217427,12.30860666,2015,OIL,Odidi,"Neconde Energy",Onshore,Medium,127.2174271
Nigeria,4.552183,8.011026,0.147726894,14.29294927,2015,OIL,"Qua Iboe","Network E&P",Onshore,Medium,147.7268941
Nigeria,4.529659,6.818466,0.080605056,7.798742292,2015,OIL,"Awoba (OML 24)","Newcross EP",Offshore,Medium,80.60505599
Nigeria,4.560722,6.710042,0.039059723,3.779126599,2015,OIL,Ekulama,"Newcross EP",Offshore,Small,39.05972267
Nigeria,4.549869,6.665711,0.014198914,1.373780717,2015,OIL,Ekulama,"Newcross EP",Onshore,Small,14.19891406
Nigeria,4.929133,6.653601,0.002759631,0.267001264,2015,OIL,Ogbele,"Niger Delta E & P",Onshore,Small,2.759631111
Nigeria,5.545515,6.764307,0.003302476,0.319522881,2015,OIL,Egbema,NPDC,Onshore,Small,3.302476056
Nigeria,5.544172,6.683921,0.017003351,1.64511708,2015,OIL,"Egbema West",NPDC,Onshore,Small,17.00335123
Nigeria,6.038037,5.717799,0.057545805,5.567701646,2015,OIL,Ogharefe,NPDC,Onshore,Medium,57.54580497
Nigeria,5.568594,6.305043,0.023867629,2.30925325,2015,OIL,Ogini,NPDC,Onshore,Small,23.86762898
Nigeria,3.989576,7.289804,0.198837023,19.23798303,2015,OIL,Okono,NPDC,Offshore,Medium,198.8370228
Nigeria,5.950847,5.051043,0.043501883,4.208916805,2015,OIL,Opuama,NPDC,Onshore,Small,43.501883
Nigeria,6.063026,5.586879,0.113817309,11.0121115,2015,OIL,Oredo,NPDC,Onshore,Medium,113.8173094
Nigeria,5.51603,5.937895,0.043280381,4.187485951,2015,OIL,"Ughelli East",NPDC,Onshore,Small,43.28038123
Nigeria,5.53871,5.894477,0.006488494,0.62777811,2015,OIL,"Ughelli West",NPDC,Onshore,Small,6.488493638
Nigeria,5.434143,5.884579,0.09197203,8.898525672,2015,OIL,Utorogu,NPDC,Onshore,Medium,91.97203
Nigeria,5.44816,5.87926,0.050287408,4.865433434,2015,OIL,Utorogu,NPDC,Onshore,Small,50.28740785
Nigeria,4.102109,8.171163,0.022211985,2.149065481,2015,OIL,Ebok,"Oriental Energy",Offshore,Small,22.21198457
Nigeria,5.666113,6.394499,0.031392922,3.037344354,2015,OIL,Umuseti,"Pillar Oil",Onshore,Small,31.39292242
Nigeria,5.881206,6.217936,0.078651464,7.609727306,2015,OIL,Egbaoma,"Platform Petroleum",Onshore,Medium,78.65146361
Nigeria,4.493538,7.270521,0.008249536,0.798163418,2015,OIL,Asaramatoru,"Prime Energy",Offshore,Small,8.249536215
Nigeria,6.065285,5.437123,0.036523542,3.533744746,2015,OIL,Oki,"Sahara Energy",Onshore,Small,36.52354219
Nigeria,4.581788,8.191209,0.01765934,1.708585599,2015,GAS,"Stubb Creek","Savannah Energy",Onshore,Small,17.65933951
Nigeria,5.864093,5.692111,0.034574977,3.345216175,2015,OIL,Amukpe,"SEPLAT Petroleum Development",Onshore,Small,34.57497722
Nigeria,4.626234,6.814585,0.025739038,2.490316788,2015,OIL,Idama,"SEPLAT Petroleum Development",Offshore,Small,25.73903799
Nigeria,4.3483,7.111652,0.003329861,0.32217241,2015,OIL,Inda,"SEPLAT Petroleum Development",Offshore,Small,3.329860654
Nigeria,6.013348,5.865418,0.180712323,17.4843726,2015,OIL,Oben,"SEPLAT Petroleum Development",Onshore,Medium,180.7123226
Nigeria,4.526689,6.632389,0.051608434,4.99324602,2015,OIL,Robertkiri,"SEPLAT Petroleum Development",Onshore,Small,51.60843376
Nigeria,5.900414,5.582542,0.124641323,12.05936211,2015,OIL,Sapele,"SEPLAT Petroleum Development",Onshore,Medium,124.6413231
Nigeria,5.727132,4.831465,0.036901485,3.570311678,2015,OIL,"Ukpokiti (OML 108)","Shebah E&P Company",Offshore,Small,36.90148513
Nigeria,5.197658,6.491347,0.009439613,0.913306334,2015,OIL,Adibawa,Shell,Onshore,Small,9.439612881
Nigeria,4.841387,7.25394,0.025211426,2.439269007,2015,OIL,"Afam Umuosi",Shell,Onshore,Small,25.2114261
Nigeria,4.933476,6.976427,0.030012159,2.903752019,2015,OIL,Agbada,Shell,Onshore,Small,30.01215905
Nigeria,4.930375,7.016196,0.019692395,1.905288797,2015,OIL,Agbada,Shell,Onshore,Small,19.69239454
Nigeria,5.192844,6.761927,0.020711037,2.003844976,2015,OIL,Ahia,Shell,Onshore,Small,20.71103653
Nigeria,4.401454,6.646596,0.027147482,2.626587265,2015,OIL,Belema,Shell,Onshore,Small,27.14748169
Nigeria,5.006007,5.686542,0.019511053,1.887743537,2015,OIL,Benisede,Shell,Onshore,Small,19.51105291
Nigeria,4.998086,5.687363,0.02408709,2.330486677,2015,OIL,Benisede,Shell,Onshore,Small,24.08709021
Nigeria,4.554694,4.615805,0.061284719,5.929451036,2015,OIL,Bonga,Shell,Offshore,Medium,61.28471936
Nigeria,4.468792,7.196087,0.002478433,0.239794666,2015,OIL,Bonny,Shell,Onshore,Small,2.478433283
Nigeria,4.66178,6.076893,0.003516821,0.34026131,2015,OIL,"Diebu Creek",Shell,Onshore,Small,3.51682116
Nigeria,4.802516,5.311433,0.033514194,3.242582697,2015,OIL,EA,Shell,Offshore,Small,33.51419371
Nigeria,4.82957,7.108037,0.011700173,1.132021222,2015,OIL,Elelenwa,Shell,Onshore,Small,11.700173
Nigeria,5.536295,5.194801,0.051930779,5.024433778,2015,OIL,"Escravos Beach",Shell,Onshore,Medium,51.93077946
Nigeria,5.025551,6.358518,0.009332618,0.902954287,2015,OIL,Etelebou,Shell,Onshore,Small,9.332617767
Nigeria,5.376627,5.307871,0.023310562,2.255355652,2015,OIL,"Forcados Yokri",Shell,Offshore,Small,23.31056237
Nigeria,5.360204,5.324809,0.007190675,0.695715922,2015,OIL,"Forcados Yokri",Shell,Offshore,Small,7.19067495
Nigeria,5.410016,5.318099,0.014097715,1.363989477,2015,OIL,"Forcados Yokri",Shell,Offshore,Small,14.09771526
Nigeria,5.431443,5.26774,0.005925335,0.573291093,2015,OIL,"Forcados Yokri",Shell,Offshore,Small,5.925334999
Nigeria,5.345315,5.367339,0,0,2015,OIL,"Forcados Yokri",Shell,Onshore,Small,0
Nigeria,5.336556,5.352246,0.002044642,0.19782424,2015,OIL,"Forcados Yokri",Shell,Onshore,Small,2.044641732
Nigeria,5.018598,6.300172,0.033537556,3.244843094,2015,GAS,Gbaran,Shell,Onshore,Small,33.53755638
Nigeria,4.980622,7.183092,0.020295861,1.963675715,2015,OIL,"Imo River",Shell,Onshore,Small,20.29586118
Nigeria,4.987072,7.168567,0.006461079,0.62512572,2015,OIL,"Imo River",Shell,Onshore,Small,6.461079467
Nigeria,4.864771,7.246198,0.015167696,1.467512808,2015,OIL,Isimiri,Shell,Onshore,Small,15.16769597
Nigeria,4.88602,6.372504,0.01030761,0.997287243,2015,OIL,"Kolo Creek",Shell,Onshore,Small,10.30761
Nigeria,4.9825,7.117503,0.003135862,0.303402529,2015,OIL,Nkali,Shell,Onshore,Small,3.135861774
Nigeria,4.800744,6.089971,0.018879936,1.826681338,2015,OIL,"Nun River",Shell,Onshore,Small,18.87993551
Nigeria,5.007743,6.811342,0.002556379,0.247336095,2015,OIL,Obele,Shell,Onshore,Small,2.556378839
Nigeria,4.893178,7.119541,0.010317754,0.998268656,2015,OIL,"Obigbo North (OML 11)",Shell,Onshore,Small,10.31775354
Nigeria,5.661119,6.705848,0.02593978,2.509739036,2015,OIL,Oguta,Shell,Onshore,Small,25.93977951
Nigeria,4.913094,5.773726,0.084082545,8.135198123,2015,OIL,Opukushi,Shell,Onshore,Medium,84.08254506
Nigeria,5.654645,5.14771,0.043800275,4.237786941,2015,OIL,Otumara,Shell,Onshore,Small,43.80027457
Nigeria,4.981302,6.684008,0.013054498,1.263055589,2015,OIL,Rumuekpe,Shell,Onshore,Small,13.05449811
Nigeria,5.624213,5.172899,0.034131974,3.302354466,2015,OIL,Saghara,Shell,Onshore,Small,34.13197368
Nigeria,5.615888,5.20193,0.042746293,4.135811554,2015,OIL,Saghara,Shell,Onshore,Small,42.74629285
Nigeria,4.65579,6.614816,0.0398993,3.860357835,2015,OIL,Soku,Shell,Onshore,Small,39.89930014
Nigeria,4.648893,6.63303,0.001854496,0.179427182,2015,OIL,Soku,Shell,Onshore,Small,1.854496214
Nigeria,4.880939,5.615126,0.069678128,6.741534494,2015,GAS,Tunu,Shell,Onshore,Medium,69.67812822
Nigeria,5.112547,6.55665,0,0,2015,OIL,Ubie,Shell,Onshore,Small,0
Nigeria,5.008144,7.018997,0.001240505,0.120021941,2015,OIL,Umuechem,Shell,Onshore,Small,1.240504546
Nigeria,5.548873,6.012966,0.002970697,0.287422379,2015,OIL,Afiesere,"Shoreline Natural Resources",Onshore,Small,2.970696569
Nigeria,5.651901,6.069358,0.001112096,0.107598054,2015,OIL,Kokori,"Shoreline Natural Resources",Onshore,Small,1.112095622
Nigeria,5.459583,6.179629,0.002903977,0.280967085,2015,OIL,Olomoro-Oleh,"Shoreline Natural Resources",Onshore,Small,2.903976924
Nigeria,5.356241,6.144253,0.007303171,0.706600164,2015,OIL,Oroni,"Shoreline Natural Resources",Onshore,Small,7.303170642
Nigeria,5.489939,6.13561,0.006346129,0.614003994,2015,OIL,Oweh,"Shoreline Natural Resources",Onshore,Small,6.346129216
Nigeria,5.327181,6.241895,0.013189174,1.276085778,2015,OIL,"Uzere West","Shoreline Natural Resources",Onshore,Small,13.18917355
Nigeria,5.716869,6.48592,0.067773036,6.557211978,2015,OIL,Okwuibome,"Sterling Global",Onshore,Medium,67.77303556
Nigeria,5.823731,6.4422,0.05281028,5.109527718,2015,GAS,Matsogo,"Swift Oil",Onshore,Medium,52.81028048
Nigeria,3.955456,7.758371,0.015846515,1.533190222,2015,OIL,Afia,TotalEnergies,Offshore,Small,15.84651461
Nigeria,3.142144,6.823137,0.061994471,5.99812133,2015,GAS,Akpo,TotalEnergies,Offshore,Medium,61.99447136
Nigeria,4.13571,7.515565,0.095115048,9.202620626,2015,OIL,Amenam-Kpono,TotalEnergies,Offshore,Medium,95.11504844
Nigeria,4.035214,7.686007,0.02715035,2.626864807,2015,OIL,Edikan,TotalEnergies,Offshore,Small,27.15035027
Nigeria,5.245901,6.659867,0.004742267,0.458826296,2015,GAS,Ibewa,TotalEnergies,Onshore,Small,4.742267134
Nigeria,3.95392,7.774897,0.026804524,2.593405206,2015,OIL,Ime,TotalEnergies,Offshore,Small,26.80452361
Nigeria,5.238211,6.626947,0.064358241,6.226822024,2015,OIL,Obagi,TotalEnergies,Onshore,Medium,64.35824125
Nigeria,5.249955,6.599884,0.176160151,17.0439385,2015,OIL,"Obagi SW",TotalEnergies,Onshore,Medium,176.1601507
Nigeria,3.978451,7.757837,0.012285157,1.188619851,2015,OIL,Odudu,TotalEnergies,Offshore,Small,12.28515651
Nigeria,4.12824,8.096095,0.011555709,1.118043956,2015,OIL,Ofon,TotalEnergies,Offshore,Small,11.5557089
Nigeria,4.316572,8.367146,0.160212783,15.50099053,2016,OIL,Adanga,Addax,Offshore,Medium,160.2127834
Nigeria,4.353285,8.245296,0.019805496,1.916231692,2016,OIL,Akam,Addax,Offshore,Small,19.80549646
Nigeria,4.27155,8.337851,0.045814456,4.432664064,2016,OIL,Ebughu,Addax,Offshore,Small,45.81445593
Nigeria,5.619318,6.814719,0.049768305,4.815208928,2016,OIL,Izombe,Addax,Onshore,Small,49.76830503
Nigeria,4.220262,8.333887,0.005597206,0.541543801,2016,OIL,Mimbo,Addax,Offshore,Small,5.597206158
Nigeria,3.854651,6.980762,0.045916604,4.442547183,2016,OIL,Okwori,Addax,Offshore,Small,45.91660437
Nigeria,4.441032,6.360812,0.059592167,5.765692336,2016,OIL,"Nembe Creek","Aiteo Eastern E&P Company",Onshore,Medium,59.59216707
Nigeria,4.453277,6.325722,0.056942472,5.509327638,2016,OIL,"Nembe Creek","Aiteo Eastern E&P Company",Onshore,Medium,56.94247176
Nigeria,4.433222,6.325047,0.042678381,4.129240951,2016,OIL,"Nembe Creek","Aiteo Eastern E&P Company",Offshore,Small,42.67838141
Nigeria,4.451429,6.283253,0.013908127,1.345646289,2016,OIL,"Nembe Creek","Aiteo Eastern E&P Company",Onshore,Small,13.90812652
Nigeria,4.419824,6.517657,0.029216626,2.826782188,2016,OIL,"Odeama Creek","Aiteo Eastern E&P Company",Onshore,Small,29.21662596
Nigeria,4.539681,6.50336,0.041618738,4.026717791,2016,OIL,"Santa Barbara","Aiteo Eastern E&P Company",Onshore,Small,41.61873811
Nigeria,4.348764,7.312165,0.009939806,0.961701317,2016,GAS,"Ima Gas","Amni International",Offshore,Small,9.93980639
Nigeria,4.403459,7.828382,0.051758438,5.007759349,2016,OIL,Okoro,"Amni International",Offshore,Medium,51.75843843
Nigeria,5.597708,4.989595,0.017049602,1.649591958,2016,OIL,"Ejulebe (OML 109)","Atlas Petroleum International",Offshore,Small,17.04960199
Nigeria,5.330629,5.209536,0.003956579,0.382808982,2016,OIL,Ajapa,"Brittania-U Nigeria",Offshore,Small,3.956578929
Nigeria,5.672808,5.274832,0.015763676,1.525175418,2016,OIL,Abiteye,Chevron,Onshore,Small,15.76367641
Nigeria,3.465355,5.561073,0.175318131,16.96247095,2016,OIL,"Agbami-Ekoli (OML 127)",Chevron,Offshore,Medium,175.3181308
Nigeria,5.860062,5.133012,0.033176815,3.209940487,2016,OIL,"Benin River",Chevron,Onshore,Small,33.17681531
Nigeria,5.600055,5.109103,0.048581563,4.700388669,2016,OIL,"Delta South",Chevron,Offshore,Small,48.58156324
Nigeria,5.816942,5.201165,0.029606316,2.864485719,2016,OIL,Dibi,Chevron,Onshore,Small,29.60631639
Nigeria,4.326352,5.82129,0.063863029,6.178908949,2016,OIL,Funiwa,Chevron,Offshore,Medium,63.86302857
Nigeria,5.783783,5.428486,0.045773655,4.428716496,2016,OIL,Makaraba,Chevron,Onshore,Small,45.77365526
Nigeria,5.436078,5.139957,0.056167259,5.434323853,2016,OIL,Meji,Chevron,Offshore,Medium,56.16725903
Nigeria,5.773769,4.889429,0.086364158,8.355949903,2016,OIL,Meren,Chevron,Offshore,Medium,86.36415778
Nigeria,5.55958,5.072526,0.068613225,6.638502382,2016,OIL,Okan,Chevron,Offshore,Medium,68.61322456
Nigeria,5.537497,5.091621,0.019196862,1.857344775,2016,OIL,Okan,Chevron,Offshore,Small,19.196862
Nigeria,5.574181,5.058655,0.017758154,1.718146156,2016,OIL,Okan,Chevron,Offshore,Small,17.75815406
Nigeria,5.738328,4.726335,0.022086166,2.136892203,2016,OIL,Opolo,Chevron,Offshore,Small,22.08616585
Nigeria,5.881851,4.834869,0.007571782,0.732589035,2016,OIL,Parabe,Chevron,Offshore,Small,7.571782468
Nigeria,4.337742,5.925781,0.070693765,6.839799931,2016,OIL,Otuo,ConOil,Offshore,Medium,70.6937652
Nigeria,6.153111,5.342632,0.03398461,3.288096646,2016,OIL,"Gilli Gilli","Dubri Oil",Onshore,Small,33.98460987
Nigeria,5.685073,6.359298,0.115034407,11.12986876,2016,OIL,Ebendo,Energia,Onshore,Medium,115.034407
Nigeria,5.708371,4.481128,0.152077306,14.71386258,2016,OIL,Abo,Eni,Offshore,Medium,152.0773059
Nigeria,3.940254,6.39798,0.076549982,7.406403687,2016,OIL,Agbara,Eni,Offshore,Medium,76.54998223
Nigeria,5.634102,6.669238,0.100144511,9.689233773,2016,OIL,Akri,Eni,Onshore,Medium,100.1445107
Nigeria,5.687634,6.591882,0.009101837,0.880625661,2016,OIL,Beniku,Eni,Onshore,Small,9.101836946
Nigeria,4.85106,5.692364,0.066699115,6.4533075,2016,OIL,"Clough Creek",Eni,Onshore,Medium,66.69911543
Nigeria,5.48768,6.24361,0.001891601,0.183017188,2016,GAS,Irri,Eni,Onshore,Small,1.89160125
Nigeria,5.659545,6.51714,0.149231826,14.43855524,2016,OIL,Kwale,Eni,Onshore,Medium,149.2318261
Nigeria,5.458676,6.697443,0.000540098,0.052255856,2016,OIL,M'Bede,Eni,Onshore,Small,0.540098135
Nigeria,4.628855,6.263102,0.139077156,13.4560653,2016,OIL,Obama,Eni,Onshore,Medium,139.0771558
Nigeria,5.386577,6.657141,0.187294742,18.12123825,2016,OIL,Obiafu-Obrikom,Eni,Onshore,Medium,187.2947418
Nigeria,4.813553,5.962204,0.061645703,5.964377108,2016,OIL,Ogbainbiri,Eni,Onshore,Medium,61.64570295
Nigeria,5.715309,6.486204,0.134474605,13.01075695,2016,OIL,Okpai,Eni,Onshore,Medium,134.4746054
Nigeria,5.099911,6.506863,0.110094004,10.65187228,2016,OIL,Oshi,Eni,Onshore,Medium,110.0940036
Nigeria,4.555793,5.921052,0.047400692,4.586136406,2016,OIL,Tebidaba,Eni,Onshore,Small,47.40069205
Nigeria,5.386333,4.590252,0.057014093,5.516257181,2016,OIL,"Oyo NW","Erin Energy",Offshore,Medium,57.01409308
Nigeria,4.653205,7.059681,0.056955387,5.510577228,2016,OIL,Alakiri,"Eroton E&P Company",Onshore,Medium,56.95538708
Nigeria,4.556336,7.003773,0.0951727,9.208198517,2016,OIL,"Cawthorne Channel","Eroton E&P Company",Offshore,Medium,95.17269955
Nigeria,4.551676,7.044897,0.074800543,7.237141074,2016,OIL,"Cawthorne Channel","Eroton E&P Company",Onshore,Medium,74.80054343
Nigeria,4.559364,6.97581,0.070344171,6.805975809,2016,OIL,"Cawthorne Channel","Eroton E&P Company",Onshore,Medium,70.34417097
Nigeria,4.146192,7.972451,0.203293007,19.66911076,2016,OIL,Edop,ExxonMobil,Offshore,Medium,203.2930074
Nigeria,4.106746,7.624672,0.060307206,5.834874169,2016,OIL,Ekpe,ExxonMobil,Offshore,Medium,60.30720615
Nigeria,5.358967,4.342047,0.151957546,14.70227548,2016,OIL,Erha,ExxonMobil,Offshore,Medium,151.9575457
Nigeria,4.27004,7.681917,0.004412519,0.42692234,2016,OIL,Erong,ExxonMobil,Offshore,Small,4.412519078
Nigeria,4.365249,7.997637,0.11365012,10.99593546,2016,OIL,Idoho,ExxonMobil,Offshore,Medium,113.6501195
Nigeria,4.304218,7.659268,0.324244979,31.37151883,2016,GAS,Oso,ExxonMobil,Offshore,Medium,324.2449792
Nigeria,4.304039,7.624297,0.017748644,1.717226003,2016,GAS,Oso,ExxonMobil,Offshore,Small,17.74864369
Nigeria,4.289917,8.166949,0.134653072,13.028024,2016,OIL,Unam,ExxonMobil,Offshore,Medium,134.6530716
Nigeria,3.5758,7.393444,0.207350766,20.06170915,2016,OIL,Usan,ExxonMobil,Offshore,Medium,207.3507661
Nigeria,4.242526,7.794376,0.019612412,1.897550325,2016,OIL,Usari,ExxonMobil,Offshore,Small,19.61241242
Nigeria,4.245854,7.810912,0.00079846,0.077253047,2016,OIL,Usari,ExxonMobil,Offshore,Small,0.798460306
Nigeria,4.229152,7.782346,0.00049299,0.047697977,2016,OIL,Usari,ExxonMobil,Offshore,Small,0.492989506
Nigeria,4.017424,7.491898,0.089211105,8.631399245,2016,OIL,Yoho,ExxonMobil,Offshore,Medium,89.21110525
Nigeria,4.605715,8.015704,0.003382728,0.327287437,2016,GAS,Uquo,"Frontier Oil Ltd",Onshore,Small,3.382727779
Nigeria,5.714986,6.42122,0.049969373,4.834662768,2016,OIL,Umusadege,"Midwestern O&G",Onshore,Small,49.96937308
Nigeria,4.577452,8.421315,0.001956692,0.189314836,2016,OIL,"Abana East","Moni Pulo",Offshore,Small,1.956691527
Nigeria,4.728041,7.118448,0,0,2016,OIL,"Dawes Island",NA,Onshore,Small,0
Nigeria,3.992946,7.320302,0.00445194,0.430736429,2016,NA,NA,NA,Offshore,Small,4.451940157
Nigeria,4.422805,7.153733,0.113657751,10.99667386,2016,OIL,NLNG,NA,Offshore,Medium,113.6577513
Nigeria,4.414778,7.140053,0.069858672,6.759002594,2016,NA,NLNG,NA,Offshore,Medium,69.85867235
Nigeria,5.534887,5.537344,0.00207548,0.200807938,2016,OIL,Batan,"Neconde Energy",Onshore,Small,2.075480183
Nigeria,5.687496,5.377161,0.015037865,1.454951313,2016,OIL,"Jones Creek","Neconde Energy",Onshore,Small,15.03786478
Nigeria,5.523968,5.468442,0.036553291,3.536623009,2016,OIL,Odidi,"Neconde Energy",Onshore,Small,36.5532909
Nigeria,4.552606,8.009838,0.126012723,12.19204846,2016,OIL,"Qua Iboe","Network E&P",Onshore,Medium,126.0127225
Nigeria,4.529604,6.818516,0.093448504,9.041378284,2016,OIL,"Awoba (OML 24)","Newcross EP",Offshore,Medium,93.44850433
Nigeria,4.560919,6.710215,0.046589962,4.507696249,2016,OIL,Ekulama,"Newcross EP",Offshore,Small,46.58996219
Nigeria,4.549398,6.666374,0.022949995,2.220469878,2016,OIL,Ekulama,"Newcross EP",Onshore,Small,22.94999529
Nigeria,4.929626,6.653505,0.002036215,0.197008901,2016,OIL,Ogbele,"Niger Delta E & P",Onshore,Small,2.036214675
Nigeria,5.545005,6.764948,0.001528725,0.147907976,2016,OIL,Egbema,NPDC,Onshore,Small,1.528724787
Nigeria,5.545419,6.682893,0.022640938,2.190567763,2016,OIL,"Egbema West",NPDC,Onshore,Small,22.64093755
Nigeria,6.037264,5.718265,0.011109905,1.074911309,2016,OIL,Ogharefe,NPDC,Onshore,Small,11.10990503
Nigeria,5.568479,6.304743,0.015730243,1.521940684,2016,OIL,Ogini,NPDC,Onshore,Small,15.73024335
Nigeria,3.989085,7.290214,0.182863906,17.69254377,2016,OIL,Okono,NPDC,Offshore,Medium,182.8639065
Nigeria,5.950302,5.050743,0.014486909,1.40164495,2016,OIL,Opuama,NPDC,Onshore,Small,14.48690897
Nigeria,6.062551,5.587184,0.043096955,4.169739019,2016,OIL,Oredo,NPDC,Onshore,Small,43.09695519
Nigeria,5.515833,5.937712,0.050881664,4.922929245,2016,OIL,"Ughelli East",NPDC,Onshore,Small,50.88166432
Nigeria,5.538055,5.895042,0.002895855,0.280181311,2016,OIL,"Ughelli West",NPDC,Onshore,Small,2.895855439
Nigeria,5.433828,5.884398,0.078925521,7.636243003,2016,OIL,Utorogu,NPDC,Onshore,Medium,78.92552052
Nigeria,5.447969,5.879182,0.035788058,3.462584816,2016,OIL,Utorogu,NPDC,Onshore,Small,35.78805819
Nigeria,4.100589,8.171854,0.018863764,1.825116719,2016,OIL,Ebok,"Oriental Energy",Offshore,Small,18.86376416
Nigeria,5.665921,6.394503,0.021639619,2.093687637,2016,OIL,Umuseti,"Pillar Oil",Onshore,Small,21.63961866
Nigeria,5.880783,6.217643,0.065071492,6.295830791,2016,OIL,Egbaoma,"Platform Petroleum",Onshore,Medium,65.07149158
Nigeria,4.493918,7.271287,0.001511154,0.146207965,2016,OIL,Asaramatoru,"Prime Energy",Offshore,Small,1.511154081
Nigeria,6.065005,5.437309,0.013315225,1.288281599,2016,OIL,"Oziengbe South","Sahara Energy",Onshore,Small,13.31522527
Nigeria,4.58149,8.190468,0.025189306,2.437128862,2016,GAS,"Stubb Creek","Savannah Energy",Onshore,Small,25.1893063
Nigeria,5.863657,5.693051,0.00578759,0.55996389,2016,OIL,Amukpe,"SEPLAT Petroleum Development",Onshore,Small,5.787589716
Nigeria,4.625717,6.814818,0.036798682,3.560365214,2016,OIL,Idama,"SEPLAT Petroleum Development",Offshore,Small,36.79868198
Nigeria,4.348372,7.112509,0.002236608,0.216397422,2016,OIL,Inda,"SEPLAT Petroleum Development",Offshore,Small,2.236607606
Nigeria,6.013415,5.865506,0.1127754,10.91130416,2016,OIL,Oben,"SEPLAT Petroleum Development",Onshore,Medium,112.7754001
Nigeria,4.526569,6.632295,0.055910714,5.409502456,2016,OIL,Robertkiri,"SEPLAT Petroleum Development",Onshore,Medium,55.91071381
Nigeria,5.900323,5.582892,0.056417053,5.458492055,2016,OIL,Sapele,"SEPLAT Petroleum Development",Onshore,Medium,56.41705306
Nigeria,5.726772,4.831498,0.027514035,2.662052178,2016,OIL,"Ukpokiti (OML 108)","Shebah E&P Company",Offshore,Small,27.51403455
Nigeria,4.841113,7.254266,0.016756454,1.62122911,2016,OIL,"Afam Umuosi",Shell,Onshore,Small,16.75645358
Nigeria,4.930132,7.015641,0.025158133,2.434112807,2016,OIL,Agbada,Shell,Onshore,Small,25.15813342
Nigeria,4.933433,6.976309,0.020142234,1.948811905,2016,OIL,Agbada,Shell,Onshore,Small,20.14223407
Nigeria,5.192302,6.761459,0.012625753,1.221573386,2016,OIL,Ahia,Shell,Onshore,Small,12.62575266
Nigeria,4.400927,6.646645,0.027770638,2.686879255,2016,OIL,Belema,Shell,Onshore,Small,27.77063848
Nigeria,5.006115,5.68666,0.007515718,0.727164679,2016,OIL,Benisede,Shell,Onshore,Small,7.515718238
Nigeria,4.997723,5.687705,0.007189783,0.695629578,2016,OIL,Benisede,Shell,Onshore,Small,7.189782526
Nigeria,4.554182,4.616118,0.110812565,10.72139491,2016,OIL,Bonga,Shell,Offshore,Medium,110.812565
Nigeria,4.468595,7.196368,0.002933806,0.283853117,2016,OIL,Bonny,Shell,Onshore,Small,2.933805932
Nigeria,4.802229,5.311499,0.016200156,1.567405871,2016,OIL,EA,Shell,Offshore,Small,16.20015552
Nigeria,4.835684,7.104269,0,0,2016,OIL,Elelenwa,Shell,Onshore,Small,0
Nigeria,5.536202,5.194886,0.017675643,1.710162981,2016,OIL,"Escravos Beach",Shell,Onshore,Small,17.67564278
Nigeria,5.025001,6.358897,0.005391618,0.521652604,2016,OIL,Etelebou,Shell,Onshore,Small,5.391617746
Nigeria,5.376266,5.308105,0.007816675,0.75628296,2016,OIL,"Forcados Yokri",Shell,Offshore,Small,7.816674547
Nigeria,5.360531,5.324452,0.003229182,0.312431519,2016,OIL,"Forcados Yokri",Shell,Offshore,Small,3.229182236
Nigeria,5.409995,5.318779,0.006441663,0.623247091,2016,OIL,"Forcados Yokri",Shell,Offshore,Small,6.441662615
Nigeria,5.431052,5.268261,0.002543484,0.246088527,2016,OIL,"Forcados Yokri",Shell,Offshore,Small,2.543484415
Nigeria,5.334818,5.353666,0.000265169,0.02565581,2016,OIL,"Forcados Yokri",Shell,Onshore,Small,0.265169425
Nigeria,5.018409,6.300028,0.052435025,5.073220813,2016,GAS,Gbaran,Shell,Onshore,Medium,52.43502508
Nigeria,4.980167,7.181819,0.018174262,1.758405666,2016,OIL,"Imo River",Shell,Onshore,Small,18.17426219
Nigeria,4.986753,7.167786,0.002240858,0.216808651,2016,OIL,"Imo River",Shell,Onshore,Small,2.24085792
Nigeria,4.864908,7.246456,0.005811865,0.56231255,2016,OIL,Isimiri,Shell,Onshore,Small,5.811864647
Nigeria,4.886326,6.373223,0.003558376,0.344281858,2016,OIL,"Kolo Creek",Shell,Onshore,Small,3.558376131
Nigeria,4.981167,7.117079,0.002544474,0.246184234,2016,OIL,Nkali,Shell,Onshore,Small,2.544473611
Nigeria,4.801602,6.089759,0.00572181,0.553599502,2016,OIL,"Nun River",Shell,Onshore,Small,5.721809643
Nigeria,5.007911,6.811512,0.000965728,0.093436654,2016,OIL,Obele,Shell,Onshore,Small,0.965728377
Nigeria,4.893197,7.120536,0.011443208,1.107159244,2016,OIL,"Obigbo North (OML 11)",Shell,Onshore,Small,11.44320834
Nigeria,5.661731,6.706414,0.024856531,2.404932046,2016,OIL,Oguta,Shell,Onshore,Small,24.85653134
Nigeria,4.912887,5.774167,0.030337793,2.935257939,2016,OIL,Opukushi,Shell,Onshore,Small,30.33779315
Nigeria,5.654384,5.1481,0.009704102,0.938896303,2016,OIL,Otumara,Shell,Onshore,Small,9.7041018
Nigeria,4.981613,6.683304,0.009199142,0.890040184,2016,OIL,Rumuekpe,Shell,Onshore,Small,9.199142141
Nigeria,5.6219,5.1735,0.009337424,0.903419314,2016,OIL,Saghara,Shell,Onshore,Small,9.337424124
Nigeria,5.616025,5.202106,0.046729682,4.521214538,2016,OIL,Saghara,Shell,Onshore,Small,46.72968247
Nigeria,4.655361,6.614704,0.044923299,4.34644237,2016,OIL,Soku,Shell,Onshore,Small,44.92329885
Nigeria,4.880741,5.615143,0.030018726,2.904387392,2016,GAS,Tunu,Shell,Onshore,Small,30.01872604
Nigeria,5.007629,7.019232,0.003257508,0.315172096,2016,OIL,Umuechem,Shell,Onshore,Small,3.257507881
Nigeria,5.459069,6.17994,0.002478714,0.239821834,2016,OIL,Olomoro-Oleh,"Shoreline Natural Resources",Onshore,Small,2.478714085
Nigeria,5.355894,6.143297,0.005725303,0.553937459,2016,OIL,Oroni,"Shoreline Natural Resources",Onshore,Small,5.72530265
Nigeria,5.489167,6.136198,0.002121033,0.205215298,2016,OIL,Oweh,"Shoreline Natural Resources",Onshore,Small,2.121033104
Nigeria,5.326874,6.24188,0.007385949,0.714609142,2016,OIL,"Uzere West","Shoreline Natural Resources",Onshore,Small,7.385948625
Nigeria,5.823828,6.441949,0.017356634,1.679298114,2016,GAS,Matsogo,"Swift Oil",Onshore,Small,17.35663437
Nigeria,3.95527,7.758382,0.023897774,2.312169886,2016,OIL,Afia,TotalEnergies,Offshore,Small,23.8977743
Nigeria,3.141944,6.822873,0.067151445,6.497071541,2016,GAS,Akpo,TotalEnergies,Offshore,Medium,67.15144516
Nigeria,4.135078,7.516162,0.074338821,7.19246824,2016,OIL,Amenam-Kpono,TotalEnergies,Offshore,Medium,74.33882074
Nigeria,4.03555,7.685895,0.027942383,2.703495958,2016,OIL,Edikan,TotalEnergies,Offshore,Small,27.94238288
Nigeria,5.247305,6.660316,0.004671324,0.451962415,2016,GAS,Ibewa,TotalEnergies,Onshore,Small,4.671324479
Nigeria,3.953358,7.774964,0.027186895,2.630400638,2016,OIL,Ime,TotalEnergies,Offshore,Small,27.18689537
Nigeria,5.238513,6.626541,0.034853752,3.372188357,2016,OIL,Obagi,TotalEnergies,Onshore,Small,34.8537522
Nigeria,5.250405,6.59954,0.138002542,13.35209375,2016,OIL,"Obagi SW",TotalEnergies,Onshore,Medium,138.0025424
Nigeria,3.978457,7.757773,0.013115331,1.268941358,2016,OIL,Odudu,TotalEnergies,Offshore,Small,13.11533134
Nigeria,4.128398,8.095985,0.042423891,4.104618353,2016,OIL,Ofon,TotalEnergies,Offshore,Small,42.4238909
Nigeria,4.127605,8.103709,0.009892812,0.957154514,2016,OIL,Ofon,TotalEnergies,Offshore,Small,9.892812237
Nigeria,4.3165,8.367373,0.158603358,15.34527461,2017,OIL,Adanga,Addax,Offshore,Medium,158.6033584
Nigeria,4.317285,8.338764,0.000575325,0.055664112,2017,OIL,"Adanga Southwest",Addax,Offshore,Small,0.575324671
Nigeria,4.353778,8.245296,0.004670972,0.451928335,2017,OIL,Akam,Addax,Offshore,Small,4.670972243
Nigeria,4.271709,8.337876,0.031838319,3.080437548,2017,OIL,Ebughu,Addax,Offshore,Small,31.83831851
Nigeria,5.619353,6.81484,0.055190978,5.339866227,2017,OIL,Izombe,Addax,Onshore,Medium,55.19097825
Nigeria,4.220982,8.33402,0.002195813,0.212450422,2017,OIL,Mimbo,Addax,Offshore,Small,2.195812806
Nigeria,3.854888,6.980304,0.070830257,6.853005823,2017,OIL,Okwori,Addax,Offshore,Medium,70.83025665
Nigeria,4.441232,6.361301,0.044376746,4.293562004,2017,OIL,"Nembe Creek","Aiteo Eastern E&P Company",Onshore,Small,44.37674599
Nigeria,4.453436,6.325696,0.042552457,4.117057451,2017,OIL,"Nembe Creek","Aiteo Eastern E&P Company",Onshore,Small,42.55245704
Nigeria,4.433334,6.325046,0.049412547,4.78078841,2017,OIL,"Nembe Creek","Aiteo Eastern E&P Company",Offshore,Small,49.41254667
Nigeria,4.451672,6.283424,0.011856381,1.147134756,2017,OIL,"Nembe Creek","Aiteo Eastern E&P Company",Onshore,Small,11.85638117
Nigeria,4.419907,6.517458,0.013005375,1.258302805,2017,OIL,"Odeama Creek","Aiteo Eastern E&P Company",Onshore,Small,13.005375
Nigeria,4.5399,6.503406,0.028120732,2.720751657,2017,OIL,"Santa Barbara","Aiteo Eastern E&P Company",Onshore,Small,28.12073171
Nigeria,4.349815,7.312223,0.009554225,0.924395382,2017,GAS,"Ima Gas","Amni International",Offshore,Small,9.554225382
Nigeria,4.403874,7.828436,0.077089784,7.458630859,2017,OIL,Okoro,"Amni International",Offshore,Medium,77.0897839
Nigeria,5.597762,4.989305,0.01269165,1.227949134,2017,OIL,"Ejulebe (OML 109)","Atlas Petroleum International",Offshore,Small,12.69165014
Nigeria,5.33115,5.209013,0.003288945,0.318213711,2017,OIL,Ajapa,"Brittania-U Nigeria",Offshore,Small,3.288944944
Nigeria,5.673334,5.274667,0.010219629,0.988774815,2017,OIL,Abiteye,Chevron,Onshore,Small,10.21962854
Nigeria,3.465556,5.561424,0.468418109,45.32063249,2017,OIL,"Agbami-Ekoli (OML 127)",Chevron,Offshore,Medium,468.4181093
Nigeria,5.860624,5.133168,0.016329338,1.579904609,2017,OIL,"Benin River",Chevron,Onshore,Small,16.32933808
Nigeria,5.600489,5.10901,0.045362713,4.388956822,2017,OIL,"Delta South",Chevron,Offshore,Small,45.36271326
Nigeria,5.817087,5.200963,0.005365905,0.519164784,2017,OIL,Dibi,Chevron,Onshore,Small,5.365904518
Nigeria,4.32657,5.821535,0.057354588,5.549200911,2017,OIL,Funiwa,Chevron,Offshore,Medium,57.35458788
Nigeria,5.783928,5.428429,0.053521967,5.178385151,2017,OIL,Makaraba,Chevron,Onshore,Medium,53.52196667
Nigeria,5.436412,5.140323,0.028664114,2.773325306,2017,OIL,Meji,Chevron,Offshore,Small,28.66411444
Nigeria,5.776598,4.889249,0.061796871,5.979002988,2017,OIL,Meren,Chevron,Offshore,Medium,61.7968709
Nigeria,4.366858,5.791246,0.007513311,0.726931801,2017,OIL,"North Apoi",Chevron,Offshore,Small,7.513311292
Nigeria,5.559601,5.072554,0.115523428,11.17718278,2017,OIL,Okan,Chevron,Offshore,Medium,115.523428
Nigeria,5.574415,5.058646,0.020518745,1.985240286,2017,OIL,Okan,Chevron,Offshore,Small,20.518745
Nigeria,5.53773,5.091626,0.016706788,1.61642387,2017,OIL,Okan,Chevron,Offshore,Small,16.7067883
Nigeria,5.973016,4.844309,0.00033544,0.032454686,2017,OIL,Bella,ConOil,Offshore,Small,0.335440213
Nigeria,4.33795,5.925732,0.123254715,11.92520424,2017,OIL,Otuo,ConOil,Offshore,Medium,123.2547147
Nigeria,6.153411,5.342829,0.033700766,3.260634071,2017,OIL,"Gilli Gilli","Dubri Oil",Onshore,Small,33.70076636
Nigeria,5.684978,6.359498,0.138446066,13.3950058,2017,OIL,Ebendo,Energia,Onshore,Medium,138.4460663
Nigeria,5.708575,4.480999,0.154081529,14.90777619,2017,OIL,Abo,Eni,Offshore,Medium,154.0815288
Nigeria,3.940516,6.397636,0.034154564,3.304540111,2017,OIL,Agbara,Eni,Offshore,Small,34.15456374
Nigeria,5.634508,6.669287,0.064526406,6.243092423,2017,OIL,Akri,Eni,Onshore,Medium,64.52640637
Nigeria,5.662663,6.484458,0,0,2017,OIL,Ashaka,Eni,Onshore,Small,0
Nigeria,5.687372,6.591955,0.03000493,2.903052603,2017,OIL,Beniku,Eni,Onshore,Small,30.00493013
Nigeria,4.851267,5.691978,0.091331272,8.836530763,2017,OIL,"Clough Creek",Eni,Onshore,Medium,91.33127244
Nigeria,5.659756,6.516747,0.150652805,14.57603851,2017,OIL,Kwale,Eni,Onshore,Medium,150.6528049
Nigeria,5.45982,6.694857,0.004745822,0.459170276,2017,OIL,M'Bede,Eni,Onshore,Small,4.745822393
Nigeria,4.628654,6.263662,0.153934177,14.89351951,2017,OIL,Obama,Eni,Onshore,Medium,153.9341767
Nigeria,5.386449,6.657321,0.150542438,14.5653602,2017,OIL,Obiafu-Obrikom,Eni,Onshore,Medium,150.5424376
Nigeria,4.813842,5.961713,0.019174201,1.855152313,2017,OIL,Ogbainbiri,Eni,Onshore,Small,19.17420148
Nigeria,5.715931,6.486049,0.22843033,22.10121003,2017,OIL,Okpai,Eni,Onshore,Medium,228.4303295
Nigeria,5.099824,6.506783,0.098054284,9.486999031,2017,OIL,Oshi,Eni,Onshore,Medium,98.05428356
Nigeria,4.556198,5.921226,0.041744369,4.038872892,2017,OIL,Tebidaba,Eni,Onshore,Small,41.74436895
Nigeria,5.386644,4.589998,0.057946051,5.606426442,2017,OIL,"Oyo NW","Erin Energy",Offshore,Medium,57.94605083
Nigeria,4.531368,6.963274,0,0,2017,OIL,Akaso,"Eroton E&P Company",Onshore,Small,0
Nigeria,4.653105,7.059494,0.077948653,7.541728577,2017,OIL,Alakiri,"Eroton E&P Company",Onshore,Medium,77.94865268
Nigeria,4.653644,7.018082,0,0,2017,OIL,Alakiri,"Eroton E&P Company",Offshore,Small,0
Nigeria,4.638303,7.080338,0,0,2017,OIL,Alakiri,"Eroton E&P Company",Onshore,Small,0
Nigeria,4.630154,7.076317,0,0,2017,OIL,Alakiri,"Eroton E&P Company",Onshore,Small,0
Nigeria,4.566335,6.833693,0,0,2017,OIL,"Awoba (OML 18)","Eroton E&P Company",Onshore,Small,0
Nigeria,4.622961,6.912772,0.000468826,0.045360108,2017,GAS,Bille,"Eroton E&P Company",Onshore,Small,0.468826116
Nigeria,4.5564,7.004156,0.094010027,9.095707039,2017,OIL,"Cawthorne Channel","Eroton E&P Company",Offshore,Medium,94.01002722
Nigeria,4.552423,7.044982,0.063700413,6.163175478,2017,OIL,"Cawthorne Channel","Eroton E&P Company",Onshore,Medium,63.70041295
Nigeria,4.559314,6.975436,0.068387206,6.616634561,2017,OIL,"Cawthorne Channel","Eroton E&P Company",Onshore,Medium,68.38720646
Nigeria,4.551113,6.953444,0,0,2017,OIL,"Cawthorne Channel","Eroton E&P Company",Onshore,Small,0
Nigeria,4.554452,6.900555,0.009922048,0.959983131,2017,OIL,Krakama,"Eroton E&P Company",Onshore,Small,9.922047825
Nigeria,4.145989,7.972265,0.240333852,23.25290579,2017,OIL,Edop,ExxonMobil,Offshore,Medium,240.3338516
Nigeria,4.174016,7.960539,0.000898715,0.086952987,2017,OIL,Edop,ExxonMobil,Offshore,Small,0.898715478
Nigeria,4.163627,7.937273,0.000858584,0.083070171,2017,OIL,Edop,ExxonMobil,Offshore,Small,0.858584056
Nigeria,4.120594,7.987084,0.000761041,0.073632644,2017,OIL,Edop,ExxonMobil,Offshore,Small,0.761041102
Nigeria,4.170838,7.945941,0.000636722,0.061604491,2017,OIL,Enang,ExxonMobil,Offshore,Small,0.636722341
Nigeria,5.359015,4.342074,0.239740921,23.19553826,2017,OIL,Erha,ExxonMobil,Offshore,Medium,239.740921
Nigeria,4.17891,7.978079,0.000792587,0.076684767,2017,OIL,Ewa,ExxonMobil,Offshore,Small,0.792586771
Nigeria,4.365157,7.998021,0.058861277,5.694976916,2017,OIL,Idoho,ExxonMobil,Offshore,Medium,58.86127737
Nigeria,4.30439,7.659828,0.24695765,23.89377493,2017,GAS,Oso,ExxonMobil,Offshore,Medium,246.9576496
Nigeria,4.308178,7.613281,0.001915815,0.185359885,2017,GAS,Oso,ExxonMobil,Offshore,Small,1.915814539
Nigeria,4.324642,7.621273,0.002566215,0.248287805,2017,GAS,Oso,ExxonMobil,Offshore,Small,2.566215378
Nigeria,4.270494,7.641153,0.001359208,0.131506826,2017,GAS,Oso,ExxonMobil,Offshore,Small,1.359208277
Nigeria,4.26717,7.672762,0.000526913,0.050980138,2017,GAS,Oso,ExxonMobil,Offshore,Small,0.526912768
Nigeria,4.263037,8.145522,0.001057765,0.102341401,2017,OIL,Ubit,ExxonMobil,Offshore,Small,1.057764708
Nigeria,4.262741,8.183292,0.000457129,0.044228377,2017,OIL,Ubit,ExxonMobil,Offshore,Small,0.457128946
Nigeria,4.289059,8.166947,0.183557224,17.75962402,2017,OIL,Unam,ExxonMobil,Offshore,Medium,183.5572243
Nigeria,3.575664,7.393632,0.211853516,20.49736157,2017,OIL,Usan,ExxonMobil,Offshore,Medium,211.8535163
Nigeria,4.242794,7.794592,0.046957168,4.543224357,2017,OIL,Usari,ExxonMobil,Offshore,Small,46.95716822
Nigeria,4.266015,7.790659,0.000407678,0.039443869,2017,OIL,Usari,ExxonMobil,Offshore,Small,0.407677946
Nigeria,4.017314,7.492048,0.249847746,24.17339904,2017,OIL,Yoho,ExxonMobil,Offshore,Medium,249.847746
Nigeria,4.012609,7.520558,0.005452202,0.527514316,2017,OIL,Yoho,ExxonMobil,Offshore,Small,5.452202338
Nigeria,4.605807,8.015425,0.00224893,0.217589644,2017,GAS,Uquo,"Frontier Oil Ltd",Onshore,Small,2.248929995
Nigeria,5.715111,6.421534,0.04665131,4.5136318,2017,OIL,Umusadege,"Midwestern O&G",Onshore,Small,46.65130996
Nigeria,4.57699,8.422464,0.002379143,0.230188065,2017,OIL,"Abana East","Moni Pulo",Offshore,Small,2.379142838
Nigeria,4.685338,7.097316,0.000665512,0.06438994,2017,OIL,"Dawes Island",NA,Offshore,Small,0.665511763
Nigeria,4.702266,7.117899,0,0,2017,OIL,"Dawes Island",NA,Onshore,Small,0
Nigeria,4.729385,7.118981,0,0,2017,OIL,"Dawes Island",NA,Onshore,Small,0
Nigeria,4.425925,6.910129,0.001891214,0.1829797,2017,OIL,KE,NA,Onshore,Small,1.89121379
Nigeria,4.440921,6.885328,0,0,2017,OIL,KE,NA,Onshore,Small,0
Nigeria,4.442189,6.93821,0,0,2017,OIL,KE,NA,Onshore,Small,0
Nigeria,4.544909,8.03688,0.001725813,0.166976715,2017,NA,NA,NA,Offshore,Small,1.72581257
Nigeria,5.414165,5.361748,0,0,2017,NA,NA,NA,Onshore,Small,0
Nigeria,4.640553,6.897793,0,0,2017,NA,NA,NA,Onshore,Small,0
Nigeria,4.423422,7.154705,0.122876354,11.88859694,2017,OIL,NLNG,NA,Offshore,Medium,122.8763545
Nigeria,4.415171,7.140176,0.04885484,4.726828852,2017,NA,NLNG,NA,Offshore,Small,48.85483967
Nigeria,5.535169,5.537382,0.003957166,0.382865781,2017,OIL,Batan,"Neconde Energy",Onshore,Small,3.957165989
Nigeria,5.687789,5.377614,0.037857445,3.662803175,2017,OIL,"Jones Creek","Neconde Energy",Onshore,Small,37.85744469
Nigeria,5.659069,5.354417,0,0,2017,OIL,"Jones Creek","Neconde Energy",Onshore,Small,0
Nigeria,5.52322,5.469312,0.047494328,4.595195931,2017,OIL,Odidi,"Neconde Energy",Onshore,Small,47.49432812
Nigeria,5.528573,5.46558,0.031494301,3.047153021,2017,OIL,Odidi,"Neconde Energy",Onshore,Small,31.49430135
Nigeria,4.552314,8.010538,0.130437981,12.62020335,2017,OIL,"Qua Iboe","Network E&P",Onshore,Medium,130.4379808
Nigeria,4.529664,6.818566,0.046607868,4.509428634,2017,OIL,"Awoba (OML 24)","Newcross EP",Offshore,Small,46.60786752
